Subzone,Population_Density,Latitude,Longitude,url,json
Ang Mo Kio Town Centre,15178.2897,1.3712845,103.84699364624538,"https://api.foursquare.com/v2/venues/explore?&client_id=34FUW3QDQCJ1CAO5MNVIJKAJYPROU1WCAGADR0XPIW4PCIIY&client_secret=WJXWNURD13KVAKNQTHJYZDMRFHE4VSESQMKQWN0XGHKTP5MZ&v=20180604&ll=1.3712845,103.84699364624538&radius=500&categoryId=4bf58dd8d48988d145941735&limit=200","[{'reasons': {'count': 0, 'items': [{'summary': 'This spot is popular', 'type': 'general', 'reasonName': 'globalInteractionReason'}]}, 'venue': {'id': '4b0a18e6f964a520c02123e3', 'name': 'Xi Xiang Feng Yong Tau Foo 喜相逢酿豆腐', 'location': {'address': 'Ang Mo Kio Central Market & Food Centre, #01-23', 'crossStreet': '724 Ang Mo Kio Avenue 6', 'lat': 1.3719750629461769, 'lng': 103.8464082321786, 'labeledLatLngs': [{'label': 'display', 'lat': 1.3719750629461769, 'lng': 103.8464082321786}], 'distance': 100, 'postalCode': '560724', 'cc': 'SG', 'city': 'Singapore', 'country': 'Singapore', 'formattedAddress': ['Ang Mo Kio Central Market & Food Centre, #01-23 (724 Ang Mo Kio Avenue 6)', '560724', 'Singapore']}, 'categories': [{'id': '4bf58dd8d48988d145941735', 'name': 'Chinese Restaurant', 'pluralName': 'Chinese Restaurants', 'shortName': 'Chinese', 'icon': {'prefix': 'https://ss3.4sqi.net/img/categories_v2/food/asian_', 'suffix': '.png'}, 'primary': True}], 'photos': {'count': 0, 'groups': []}}, 'referralId': 'e-0-4b0a18e6f964a520c02123e3-0'}, {'reasons': {'count': 0, 'items': [{'summary': 'This spot is popular', 'type': 'general', 'reasonName': 'globalInteractionReason'}]}, 'venue': {'id': '50712b67e4b0548504446dea', 'name': 'Face Ban Mian 非板面 (Ang Mo Kio)', 'location': {'address': '722 Ang Mo Kio Ave 8', 'crossStreet': 'Ang Mo Kio Central', 'lat': 1.3720308862082362, 'lng': 103.84750442817865, 'labeledLatLngs': [{'label': 'display', 'lat': 1.3720308862082362, 'lng': 103.84750442817865}], 'distance': 100, 'postalCode': '560722', 'cc': 'SG', 'neighborhood': 'Ang Mo Kio', 'country': 'Singapore', 'formattedAddress': ['722 Ang Mo Kio Ave 8 (Ang Mo Kio Central)', '560722', 'Singapore']}, 'categories': [{'id': '4bf58dd8d48988d145941735', 'name': 'Chinese Restaurant', 'pluralName': 'Chinese Restaurants', 'shortName': 'Chinese', 'icon': {'prefix': 'https://ss3.4sqi.net/img/categories_v2/food/asian_', 'suffix': '.png'}, 'primary': True}], 'photos': {'count': 0, 'groups': []}}, 'referralId': 'e-0-50712b67e4b0548504446dea-1'}, {'reasons': {'count': 0, 'items': [{'summary': 'This spot is popular', 'type': 'general', 'reasonName': 'globalInteractionReason'}]}, 'venue': {'id': '53c68f51498efd710da56841', 'name': 'e品红麻辣香锅 Mala Hot Pot', 'location': {'address': 'S11 Ang Mo Kio', 'lat': 1.3714982901834443, 'lng': 103.84780316423276, 'labeledLatLngs': [{'label': 'display', 'lat': 1.3714982901834443, 'lng': 103.84780316423276}], 'distance': 93, 'cc': 'SG', 'city': 'Singapore', 'country': 'Singapore', 'formattedAddress': ['S11 Ang Mo Kio', 'Singapore']}, 'categories': [{'id': '4bf58dd8d48988d145941735', 'name': 'Chinese Restaurant', 'pluralName': 'Chinese Restaurants', 'shortName': 'Chinese', 'icon': {'prefix': 'https://ss3.4sqi.net/img/categories_v2/food/asian_', 'suffix': '.png'}, 'primary': True}], 'photos': {'count': 0, 'groups': []}}, 'referralId': 'e-0-53c68f51498efd710da56841-2'}, {'reasons': {'count': 0, 'items': [{'summary': 'This spot is popular', 'type': 'general', 'reasonName': 'globalInteractionReason'}]}, 'venue': {'id': '4b7fce65f964a520903e30e3', 'name': 'AMK 347 Food House', 'location': {'address': '347, Ang Mo Kio Avenue 3', 'lat': 1.367601595486527, 'lng': 103.84837187141285, 'labeledLatLngs': [{'label': 'display', 'lat': 1.367601595486527, 'lng': 103.84837187141285}], 'distance': 437, 'postalCode': '560347', 'cc': 'SG', 'neighborhood': 'Ang Mo Kio', 'city': 'Singapore', 'country': 'Singapore', 'formattedAddress': ['347, Ang Mo Kio Avenue 3', '560347', 'Singapore']}, 'categories': [{'id': '4bf58dd8d48988d145941735', 'name': 'Chinese Restaurant', 'pluralName': 'Chinese Restaurants', 'shortName': 'Chinese', 'icon': {'prefix': 'https://ss3.4sqi.net/img/categories_v2/food/asian_', 'suffix': '.png'}, 'primary': True}], 'photos': {'count': 0, 'groups': []}}, 'referralId': 'e-0-4b7fce65f964a520903e30e3-3'}, {'reasons': {'count': 0, 'items': [{'summary': 'This spot is popular', 'type': 'general', 'reasonName': 'globalInteractionReason'}]}, 'venue': {'id': '4da82a6e4df0af29b706a8d3', 'name': 'Broadway Claypot Rice', 'location': {'address': 'Broadway Coffeeshop', 'crossStreet': 'Blk 727 Ang Mo Kio Ave 6', 'lat': 1.372199, 'lng': 103.845558, 'labeledLatLngs': [{'label': 'display', 'lat': 1.372199, 'lng': 103.845558}], 'distance': 189, 'postalCode': '560727', 'cc': 'SG', 'city': 'Singapore', 'country': 'Singapore', 'formattedAddress': ['Broadway Coffeeshop (Blk 727 Ang Mo Kio Ave 6)', '560727', 'Singapore']}, 'categories': [{'id': '4bf58dd8d48988d145941735', 'name': 'Chinese Restaurant', 'pluralName': 'Chinese Restaurants', 'shortName': 'Chinese', 'icon': {'prefix': 'https://ss3.4sqi.net/img/categories_v2/food/asian_', 'suffix': '.png'}, 'primary': True}], 'photos': {'count': 0, 'groups': []}}, 'referralId': 'e-0-4da82a6e4df0af29b706a8d3-4'}, {'reasons': {'count': 0, 'items': [{'summary': 'This spot is popular', 'type': 'general', 'reasonName': 'globalInteractionReason'}]}, 'venue': {'id': '577c92fa498e3c2b4f07794f', 'name': 'Master Fried Rice', 'location': {'address': '#01-11 Ang Mo Kio Central Food Centre', 'crossStreet': '724 Ang Mo Kio Ave 6', 'lat': 1.3719495611302253, 'lng': 103.84634878544603, 'labeledLatLngs': [{'label': 'display', 'lat': 1.3719495611302253, 'lng': 103.84634878544603}], 'distance': 103, 'postalCode': '560724', 'cc': 'SG', 'neighborhood': 'Ang Mo Kio', 'city': 'Singapore', 'country': 'Singapore', 'formattedAddress': ['#01-11 Ang Mo Kio Central Food Centre (724 Ang Mo Kio Ave 6)', '560724', 'Singapore']}, 'categories': [{'id': '4bf58dd8d48988d145941735', 'name': 'Chinese Restaurant', 'pluralName': 'Chinese Restaurants', 'shortName': 'Chinese', 'icon': {'prefix': 'https://ss3.4sqi.net/img/categories_v2/food/asian_', 'suffix': '.png'}, 'primary': True}], 'photos': {'count': 0, 'groups': []}, 'venuePage': {'id': '498143016'}}, 'referralId': 'e-0-577c92fa498e3c2b4f07794f-5'}, {'reasons': {'count': 0, 'items': [{'summary': 'This spot is popular', 'type': 'general', 'reasonName': 'globalInteractionReason'}]}, 'venue': {'id': '4d0d852f903d3704f4cdc455', 'name': 'Jia Jia Yong Tau Foo @ Ang Mo Kio Market & Food Centre', 'location': {'address': 'Blk 724 Ang Mo Kio Ave 6', 'lat': 1.3721377099730145, 'lng': 103.84666668477166, 'labeledLatLngs': [{'label': 'display', 'lat': 1.3721377099730145, 'lng': 103.84666668477166}], 'distance': 101, 'cc': 'SG', 'country': 'Singapore', 'formattedAddress': ['Blk 724 Ang Mo Kio Ave 6', 'Singapore']}, 'categories': [{'id': '4bf58dd8d48988d145941735', 'name': 'Chinese Restaurant', 'pluralName': 'Chinese Restaurants', 'shortName': 'Chinese', 'icon': {'prefix': 'https://ss3.4sqi.net/img/categories_v2/food/asian_', 'suffix': '.png'}, 'primary': True}], 'photos': {'count': 0, 'groups': []}}, 'referralId': 'e-0-4d0d852f903d3704f4cdc455-6'}, {'reasons': {'count': 0, 'items': [{'summary': 'This spot is popular', 'type': 'general', 'reasonName': 'globalInteractionReason'}]}, 'venue': {'id': '4d7208e9f7c38cfa37d89f3d', 'name': 'Yishun 925 Chicken Rice', 'location': {'address': 'Blk 722 Ang Mo Kio Ave 8', 'lat': 1.3721276112856176, 'lng': 103.84758510658367, 'labeledLatLngs': [{'label': 'display', 'lat': 1.3721276112856176, 'lng': 103.84758510658367}], 'distance': 114, 'cc': 'SG', 'city': 'Singapore', 'country': 'Singapore', 'formattedAddress': ['Blk 722 Ang Mo Kio Ave 8', 'Singapore']}, 'categories': [{'id': '4bf58dd8d48988d145941735', 'name': 'Chinese Restaurant', 'pluralName': 'Chinese Restaurants', 'shortName': 'Chinese', 'icon': {'prefix': 'https://ss3.4sqi.net/img/categories_v2/food/asian_', 'suffix': '.png'}, 'primary': True}], 'photos': {'count': 0, 'groups': []}}, 'referralId': 'e-0-4d7208e9f7c38cfa37d89f3d-7'}, {'reasons': {'count': 0, 'items': [{'summary': 'This spot is popular', 'type': 'general', 'reasonName': 'globalInteractionReason'}]}, 'venue': {'id': '50d14113e4b0a239c380c528', 'name': 'Seng Bee Congee', 'location': {'address': 'Blk 724 Ang Mo Kio Ave 6 #01-32', 'lat': 1.3720648103451694, 'lng': 103.84636748243003, 'labeledLatLngs': [{'label': 'display', 'lat': 1.3720648103451694, 'lng': 103.84636748243003}], 'distance': 111, 'cc': 'SG', 'country': 'Singapore', 'formattedAddress': ['Blk 724 Ang Mo Kio Ave 6 #01-32', 'Singapore']}, 'categories': [{'id': '4bf58dd8d48988d145941735', 'name': 'Chinese Restaurant', 'pluralName': 'Chinese Restaurants', 'shortName': 'Chinese', 'icon': {'prefix': 'https://ss3.4sqi.net/img/categories_v2/food/asian_', 'suffix': '.png'}, 'primary': True}], 'photos': {'count': 0, 'groups': []}}, 'referralId': 'e-0-50d14113e4b0a239c380c528-8'}, {'reasons': {'count': 0, 'items': [{'summary': 'This spot is popular', 'type': 'general', 'reasonName': 'globalInteractionReason'}]}, 'venue': {'id': '4f2e6cd5e4b0118a86cbeaa8', 'name': 'A1 起骨鸡饭 Chicken Rice', 'location': {'address': '724 Ang Mo Kio Avenue 6 #01-42', 'lat': 1.372115649116939, 'lng': 103.84622028317669, 'labeledLatLngs': [{'label': 'display', 'lat': 1.372115649116939, 'lng': 103.84622028317669}], 'distance': 126, 'postalCode': '560724', 'cc': 'SG', 'country': 'Singapore', 'formattedAddress': ['724 Ang Mo Kio Avenue 6 #01-42', '560724', 'Singapore']}, 'categories': [{'id': '4bf58dd8d48988d145941735', 'name': 'Chinese Restaurant', 'pluralName': 'Chinese Restaurants', 'shortName': 'Chinese', 'icon': {'prefix': 'https://ss3.4sqi.net/img/categories_v2/food/asian_', 'suffix': '.png'}, 'primary': True}], 'photos': {'count': 0, 'groups': []}}, 'referralId': 'e-0-4f2e6cd5e4b0118a86cbeaa8-9'}, {'reasons': {'count': 0, 'items': [{'summary': 'This spot is popular', 'type': 'general', 'reasonName': 'globalInteractionReason'}]}, 'venue': {'id': '4b9cca67f964a520bc7b36e3', 'name': 'Bee Cheng Hiang', 'location': {'address': 'Blk 709 Ang Mo Kio Ave 8', 'lat': 1.371065876667397, 'lng': 103.84775161743164, 'labeledLatLngs': [{'label': 'display', 'lat': 1.371065876667397, 'lng': 103.84775161743164}], 'distance': 87, 'postalCode': '560709', 'cc': 'SG', 'city': 'Singapore', 'country': 'Singapore', 'formattedAddress': ['Blk 709 Ang Mo Kio Ave 8', '560709', 'Singapore']}, 'categories': [{'id': '4bf58dd8d48988d145941735', 'name': 'Chinese Restaurant', 'pluralName': 'Chinese Restaurants', 'shortName': 'Chinese', 'icon': {'prefix': 'https://ss3.4sqi.net/img/categories_v2/food/asian_', 'suffix': '.png'}, 'primary': True}], 'photos': {'count': 0, 'groups': []}}, 'referralId': 'e-0-4b9cca67f964a520bc7b36e3-10'}, {'reasons': {'count': 0, 'items': [{'summary': 'This spot is popular', 'type': 'general', 'reasonName': 'globalInteractionReason'}]}, 'venue': {'id': '4f44af07e4b0f766d4792b3b', 'name': 'Qi Le Boneless Chicken Rice', 'location': {'address': 'S11 Foodcourt', 'crossStreet': '51 Ang Mo Kio Ave 3', 'lat': 1.3692151453053114, 'lng': 103.84727418422699, 'labeledLatLngs': [{'label': 'display', 'lat': 1.3692151453053114, 'lng': 103.84727418422699}], 'distance': 232, 'postalCode': '569922', 'cc': 'SG', 'city': 'Singapore', 'country': 'Singapore', 'formattedAddress': ['S11 Foodcourt (51 Ang Mo Kio Ave 3)', '569922', 'Singapore']}, 'categories': [{'id': '4bf58dd8d48988d145941735', 'name': 'Chinese Restaurant', 'pluralName': 'Chinese Restaurants', 'shortName': 'Chinese', 'icon': {'prefix': 'https://ss3.4sqi.net/img/categories_v2/food/asian_', 'suffix': '.png'}, 'primary': True}], 'photos': {'count': 0, 'groups': []}}, 'referralId': 'e-0-4f44af07e4b0f766d4792b3b-11'}, {'reasons': {'count': 0, 'items': [{'summary': 'This spot is popular', 'type': 'general', 'reasonName': 'globalInteractionReason'}]}, 'venue': {'id': '5799ecad498ec6d503ab8a53', 'name': 'Mr Teh Tarik', 'location': {'address': 'Blk 728 Ang Mo Kio Avenue 6', 'crossStreet': 'Ang Mo Kio Central', 'lat': 1.3721677783775261, 'lng': 103.84560223678665, 'labeledLatLngs': [{'label': 'display', 'lat': 1.3721677783775261, 'lng': 103.84560223678665}], 'distance': 183, 'postalCode': '560728', 'cc': 'SG', 'state': 'Singapore', 'country': 'Singapore', 'formattedAddress': ['Blk 728 Ang Mo Kio Avenue 6 (Ang Mo Kio Central)', '560728', 'Singapore']}, 'categories': [{'id': '52e81612bcbc57f1066b79ff', 'name': 'Halal Restaurant', 'pluralName': 'Halal Restaurants', 'shortName': 'Halal', 'icon': {'prefix': 'https://ss3.4sqi.net/img/categories_v2/food/halal_', 'suffix': '.png'}, 'primary': True}], 'photos': {'count': 0, 'groups': []}}, 'referralId': 'e-0-5799ecad498ec6d503ab8a53-12'}, {'reasons': {'count': 0, 'items': [{'summary': 'This spot is popular', 'type': 'general', 'reasonName': 'globalInteractionReason'}]}, 'venue': {'id': '4d84969261676dcb331e75e4', 'name': 'Seafood Park', 'location': {'address': 'Blk 722 Ang Mo Kio', 'crossStreet': 'Ang Mo Kio Central', 'lat': 1.3720760449459175, 'lng': 103.84749412815104, 'labeledLatLngs': [{'label': 'display', 'lat': 1.3720760449459175, 'lng': 103.84749412815104}], 'distance': 104, 'postalCode': '560722', 'cc': 'SG', 'city': 'Singapore', 'country': 'Singapore', 'formattedAddress': ['Blk 722 Ang Mo Kio (Ang Mo Kio Central)', '560722', 'Singapore']}, 'categories': [{'id': '4bf58dd8d48988d145941735', 'name': 'Chinese Restaurant', 'pluralName': 'Chinese Restaurants', 'shortName': 'Chinese', 'icon': {'prefix': 'https://ss3.4sqi.net/img/categories_v2/food/asian_', 'suffix': '.png'}, 'primary': True}], 'photos': {'count': 0, 'groups': []}}, 'referralId': 'e-0-4d84969261676dcb331e75e4-13'}, {'reasons': {'count': 0, 'items': [{'summary': 'This spot is popular', 'type': 'general', 'reasonName': 'globalInteractionReason'}]}, 'venue': {'id': '4d4caa58920aa35d879341a3', 'name': 'Pontian Wanton Noodles', 'location': {'address': '724 Ang Mo Kio Ave 6 #01-16', 'lat': 1.37179026038928, 'lng': 103.8463335133574, 'labeledLatLngs': [{'label': 'display', 'lat': 1.37179026038928, 'lng': 103.8463335133574}], 'distance': 92, 'postalCode': '560724', 'cc': 'SG', 'city': 'Singapore', 'country': 'Singapore', 'formattedAddress': ['724 Ang Mo Kio Ave 6 #01-16', '560724', 'Singapore']}, 'categories': [{'id': '4bf58dd8d48988d145941735', 'name': 'Chinese Restaurant', 'pluralName': 'Chinese Restaurants', 'shortName': 'Chinese', 'icon': {'prefix': 'https://ss3.4sqi.net/img/categories_v2/food/asian_', 'suffix': '.png'}, 'primary': True}], 'photos': {'count': 0, 'groups': []}}, 'referralId': 'e-0-4d4caa58920aa35d879341a3-14'}, {'reasons': {'count': 0, 'items': [{'summary': 'This spot is popular', 'type': 'general', 'reasonName': 'globalInteractionReason'}]}, 'venue': {'id': '4cda3b18c409b60c8cbbcd1a', 'name': 'Ban Chuan Braised Duck Rice', 'location': {'address': 'Ang Mo Kio Ave 6 Food Center #01-19', 'lat': 1.3719977949482454, 'lng': 103.84641083773613, 'labeledLatLngs': [{'label': 'display', 'lat': 1.3719977949482454, 'lng': 103.84641083773613}], 'distance': 102, 'cc': 'SG', 'city': 'Singapore', 'country': 'Singapore', 'formattedAddress': ['Ang Mo Kio Ave 6 Food Center #01-19', 'Singapore']}, 'categories': [{'id': '4bf58dd8d48988d145941735', 'name': 'Chinese Restaurant', 'pluralName': 'Chinese Restaurants', 'shortName': 'Chinese', 'icon': {'prefix': 'https://ss3.4sqi.net/img/categories_v2/food/asian_', 'suffix': '.png'}, 'primary': True}], 'photos': {'count': 0, 'groups': []}}, 'referralId': 'e-0-4cda3b18c409b60c8cbbcd1a-15'}, {'reasons': {'count': 0, 'items': [{'summary': 'This spot is popular', 'type': 'general', 'reasonName': 'globalInteractionReason'}]}, 'venue': {'id': '5c41c0745455b2002cc7adc1', 'name': 'Wok Hey', 'location': {'address': '#01-36, AMK Hub', 'crossStreet': '53 Ang Mo Kio Ave 3', 'lat': 1.369195, 'lng': 103.84792, 'labeledLatLngs': [{'label': 'display', 'lat': 1.369195, 'lng': 103.84792}], 'distance': 254, 'postalCode': '569933', 'cc': 'SG', 'country': 'Singapore', 'formattedAddress': ['#01-36, AMK Hub (53 Ang Mo Kio Ave 3)', '569933', 'Singapore']}, 'categories': [{'id': '4bf58dd8d48988d145941735', 'name': 'Chinese Restaurant', 'pluralName': 'Chinese Restaurants', 'shortName': 'Chinese', 'icon': {'prefix': 'https://ss3.4sqi.net/img/categories_v2/food/asian_', 'suffix': '.png'}, 'primary': True}], 'photos': {'count': 0, 'groups': []}}, 'referralId': 'e-0-5c41c0745455b2002cc7adc1-16'}, {'reasons': {'count': 0, 'items': [{'summary': 'This spot is popular', 'type': 'general', 'reasonName': 'globalInteractionReason'}]}, 'venue': {'id': '4e9a3fb2cc215f3adcbbb6e3', 'name': 'Sin Choon Braised Duck & Kway Chap', 'location': {'address': '724 Ang Mo Kio Avenue 6 #01-26', 'crossStreet': 'Ang Mo Kio Central', 'lat': 1.3721111021797896, 'lng': 103.8464829325676, 'labeledLatLngs': [{'label': 'display', 'lat': 1.3721111021797896, 'lng': 103.8464829325676}], 'distance': 108, 'postalCode': '560724', 'cc': 'SG', 'city': 'Singapore', 'country': 'Singapore', 'formattedAddress': ['724 Ang Mo Kio Avenue 6 #01-26 (Ang Mo Kio Central)', '560724', 'Singapore']}, 'categories': [{'id': '4bf58dd8d48988d145941735', 'name': 'Chinese Restaurant', 'pluralName': 'Chinese Restaurants', 'shortName': 'Chinese', 'icon': {'prefix': 'https://ss3.4sqi.net/img/categories_v2/food/asian_', 'suffix': '.png'}, 'primary': True}], 'photos': {'count': 0, 'groups': []}}, 'referralId': 'e-0-4e9a3fb2cc215f3adcbbb6e3-17'}, {'reasons': {'count': 0, 'items': [{'summary': 'This spot is popular', 'type': 'general', 'reasonName': 'globalInteractionReason'}]}, 'venue': {'id': '5285f3cd11d2b6a8411ecef4', 'name': 'Broadway Coffeeshop', 'location': {'address': 'Blk 727 Ang Mo Kio Ave 6', 'lat': 1.3730720409991226, 'lng': 103.84639344910318, 'labeledLatLngs': [{'label': 'display', 'lat': 1.3730720409991226, 'lng': 103.84639344910318}], 'distance': 209, 'cc': 'SG', 'country': 'Singapore', 'formattedAddress': ['Blk 727 Ang Mo Kio Ave 6', 'Singapore']}, 'categories': [{'id': '4bf58dd8d48988d120951735', 'name': 'Food Court', 'pluralName': 'Food Courts', 'shortName': 'Food Court', 'icon': {'prefix': 'https://ss3.4sqi.net/img/categories_v2/shops/food_foodcourt_', 'suffix': '.png'}, 'primary': True}], 'photos': {'count': 0, 'groups': []}}, 'referralId': 'e-0-5285f3cd11d2b6a8411ecef4-18'}, {'reasons': {'count': 0, 'items': [{'summary': 'This spot is popular', 'type': 'general', 'reasonName': 'globalInteractionReason'}]}, 'venue': {'id': '4d3c0d2d457cb60c8450eca4', 'name': 'S11', 'location': {'address': '51 Ang Mo Kio Ave 3', 'crossStreet': '51@AMK', 'lat': 1.3692339154074389, 'lng': 103.84727954864502, 'labeledLatLngs': [{'label': 'display', 'lat': 1.3692339154074389, 'lng': 103.84727954864502}], 'distance': 230, 'postalCode': '569922', 'cc': 'SG', 'city': 'Singapore', 'country': 'Singapore', 'formattedAddress': ['51 Ang Mo Kio Ave 3 (51@AMK)', '569922', 'Singapore']}, 'categories': [{'id': '4bf58dd8d48988d120951735', 'name': 'Food Court', 'pluralName': 'Food Courts', 'shortName': 'Food Court', 'icon': {'prefix': 'https://ss3.4sqi.net/img/categories_v2/shops/food_foodcourt_', 'suffix': '.png'}, 'primary': True}], 'photos': {'count': 0, 'groups': []}}, 'referralId': 'e-0-4d3c0d2d457cb60c8450eca4-19'}, {'reasons': {'count': 0, 'items': [{'summary': 'This spot is popular', 'type': 'general', 'reasonName': 'globalInteractionReason'}]}, 'venue': {'id': '4c9d62080313370420b45ed5', 'name': '628 Ang Mo Kio Market & Food Centre', 'location': {'address': 'Blk 628 Ang Mo Kio Ave 4', 'crossStreet': 'Ang Mo Kio St 61', 'lat': 1.3710172, 'lng': 103.8459473, 'labeledLatLngs': [{'label': 'display', 'lat': 1.3710172, 'lng': 103.8459473}], 'distance': 120, 'postalCode': '560628', 'cc': 'SG', 'city': 'Singapore', 'country': 'Singapore', 'formattedAddress': ['Blk 628 Ang Mo Kio Ave 4 (Ang Mo Kio St 61)', '560628', 'Singapore']}, 'categories': [{'id': '4bf58dd8d48988d120951735', 'name': 'Food Court', 'pluralName': 'Food Courts', 'shortName': 'Food Court', 'icon': {'prefix': 'https://ss3.4sqi.net/img/categories_v2/shops/food_foodcourt_', 'suffix': '.png'}, 'primary': True}], 'photos': {'count': 0, 'groups': []}}, 'referralId': 'e-0-4c9d62080313370420b45ed5-20'}, {'reasons': {'count': 0, 'items': [{'summary': 'This spot is popular', 'type': 'general', 'reasonName': 'globalInteractionReason'}]}, 'venue': {'id': '50138eaee4b05d9dc80ae5b0', 'name': 'Hong Kong Sheng Kee Dessert 香港盛記甜品 (Hong Kong Sheng Kee Dessert)', 'location': {'address': 'AMK Hub', 'lat': 1.3694734476071224, 'lng': 103.84924062572215, 'labeledLatLngs': [{'label': 'display', 'lat': 1.3694734476071224, 'lng': 103.84924062572215}], 'distance': 321, 'postalCode': '569933', 'cc': 'SG', 'city': 'Singapore', 'country': 'Singapore', 'formattedAddress': ['AMK Hub', '569933', 'Singapore']}, 'categories': [{'id': '4bf58dd8d48988d1d0941735', 'name': 'Dessert Shop', 'pluralName': 'Dessert Shops', 'shortName': 'Desserts', 'icon': {'prefix': 'https://ss3.4sqi.net/img/categories_v2/food/dessert_', 'suffix': '.png'}, 'primary': True}], 'photos': {'count': 0, 'groups': []}}, 'referralId': 'e-0-50138eaee4b05d9dc80ae5b0-21'}, {'reasons': {'count': 0, 'items': [{'summary': 'This spot is popular', 'type': 'general', 'reasonName': 'globalInteractionReason'}]}, 'venue': {'id': '51e003b8498e7eb37f7b62dd', 'name': 'Xin Wang Hong Kong Café', 'location': {'address': '#01-10, DJITSUN Mall', 'crossStreet': '5 Ang Mo Kio Central 2', 'lat': 1.3730319985519515, 'lng': 103.84755228723446, 'labeledLatLngs': [{'label': 'display', 'lat': 1.3730319985519515, 'lng': 103.84755228723446}], 'distance': 204, 'postalCode': '569663', 'cc': 'SG', 'city': 'Singapore', 'country': 'Singapore', 'formattedAddress': ['#01-10, DJITSUN Mall (5 Ang Mo Kio Central 2)', '569663', 'Singapore']}, 'categories': [{'id': '52af3add3cf9994f4e043bf5', 'name': 'Hong Kong Restaurant', 'pluralName': 'Hong Kong Restaurants', 'shortName': 'Hong Kong', 'icon': {'prefix': 'https://ss3.4sqi.net/img/categories_v2/food/asian_', 'suffix': '.png'}, 'primary': True}], 'photos': {'count': 0, 'groups': []}}, 'referralId': 'e-0-51e003b8498e7eb37f7b62dd-22'}]"
Cheng San,29411.1484,1.357107,103.8194992,"https://api.foursquare.com/v2/venues/explore?&client_id=34FUW3QDQCJ1CAO5MNVIJKAJYPROU1WCAGADR0XPIW4PCIIY&client_secret=WJXWNURD13KVAKNQTHJYZDMRFHE4VSESQMKQWN0XGHKTP5MZ&v=20180604&ll=1.357107,103.8194992&radius=500&categoryId=4bf58dd8d48988d145941735&limit=200","[{'reasons': {'count': 0, 'items': [{'summary': 'This spot is popular', 'type': 'general', 'reasonName': 'globalInteractionReason'}]}, 'venue': {'id': '4e1fc00efa761d67106b4d4c', 'name': 'Silk Restaurant', 'location': {'address': 'Singapore Island Country Club', 'crossStreet': 'Island Club Rd', 'lat': 1.3590860183072042, 'lng': 103.8186342905547, 'labeledLatLngs': [{'label': 'display', 'lat': 1.3590860183072042, 'lng': 103.8186342905547}], 'distance': 240, 'cc': 'SG', 'city': 'Singapore', 'country': 'Singapore', 'formattedAddress': ['Singapore Island Country Club (Island Club Rd)', 'Singapore']}, 'categories': [{'id': '4bf58dd8d48988d145941735', 'name': 'Chinese Restaurant', 'pluralName': 'Chinese Restaurants', 'shortName': 'Chinese', 'icon': {'prefix': 'https://ss3.4sqi.net/img/categories_v2/food/asian_', 'suffix': '.png'}, 'primary': True}], 'photos': {'count': 0, 'groups': []}}, 'referralId': 'e-0-4e1fc00efa761d67106b4d4c-0'}]"
Chong Boon,24568.8856,1.36820695,103.85636035693712,"https://api.foursquare.com/v2/venues/explore?&client_id=34FUW3QDQCJ1CAO5MNVIJKAJYPROU1WCAGADR0XPIW4PCIIY&client_secret=WJXWNURD13KVAKNQTHJYZDMRFHE4VSESQMKQWN0XGHKTP5MZ&v=20180604&ll=1.36820695,103.85636035693712&radius=500&categoryId=4bf58dd8d48988d145941735&limit=200","[{'reasons': {'count': 0, 'items': [{'summary': 'This spot is popular', 'type': 'general', 'reasonName': 'globalInteractionReason'}]}, 'venue': {'id': '4bebcbbd61aca593d5698500', 'name': 'Tian Tian Dao Hokkien Fried Noodles 天天到福建炒虾面', 'location': {'address': '#01-12 Chong Boon Market & Food Centre', 'crossStreet': '453A Ang Mo Kio Ave. 10', 'lat': 1.3678836097612839, 'lng': 103.85668315024292, 'labeledLatLngs': [{'label': 'display', 'lat': 1.3678836097612839, 'lng': 103.85668315024292}], 'distance': 50, 'cc': 'SG', 'city': 'Singapore', 'country': 'Singapore', 'formattedAddress': ['#01-12 Chong Boon Market & Food Centre (453A Ang Mo Kio Ave. 10)', 'Singapore']}, 'categories': [{'id': '4bf58dd8d48988d145941735', 'name': 'Chinese Restaurant', 'pluralName': 'Chinese Restaurants', 'shortName': 'Chinese', 'icon': {'prefix': 'https://ss3.4sqi.net/img/categories_v2/food/asian_', 'suffix': '.png'}, 'primary': True}], 'photos': {'count': 0, 'groups': []}}, 'referralId': 'e-0-4bebcbbd61aca593d5698500-0'}, {'reasons': {'count': 0, 'items': [{'summary': 'This spot is popular', 'type': 'general', 'reasonName': 'globalInteractionReason'}]}, 'venue': {'id': '4d1f0a155c4ca1cda26d963d', 'name': 'Yu Fa Claypot Delights', 'location': {'address': '453A Ang Mo Kio Ave 10, #01-25', 'lat': 1.3681664143313963, 'lng': 103.85606424743403, 'labeledLatLngs': [{'label': 'display', 'lat': 1.3681664143313963, 'lng': 103.85606424743403}], 'distance': 33, 'cc': 'SG', 'neighborhood': 'Ang Mo Kio', 'city': 'Singapore', 'country': 'Singapore', 'formattedAddress': ['453A Ang Mo Kio Ave 10, #01-25', 'Singapore']}, 'categories': [{'id': '4bf58dd8d48988d145941735', 'name': 'Chinese Restaurant', 'pluralName': 'Chinese Restaurants', 'shortName': 'Chinese', 'icon': {'prefix': 'https://ss3.4sqi.net/img/categories_v2/food/asian_', 'suffix': '.png'}, 'primary': True}], 'photos': {'count': 0, 'groups': []}}, 'referralId': 'e-0-4d1f0a155c4ca1cda26d963d-1'}, {'reasons': {'count': 0, 'items': [{'summary': 'This spot is popular', 'type': 'general', 'reasonName': 'globalInteractionReason'}]}, 'venue': {'id': '4bd40b55462cb713faaddf07', 'name': ""Frankie's Place Coffee Shop"", 'location': {'address': '555 Ang Mo Kio Ave 10', 'lat': 1.3707040704272428, 'lng': 103.85681239505422, 'labeledLatLngs': [{'label': 'display', 'lat': 1.3707040704272428, 'lng': 103.85681239505422}], 'distance': 282, 'postalCode': '560555', 'cc': 'SG', 'city': 'Singapore', 'country': 'Singapore', 'formattedAddress': ['555 Ang Mo Kio Ave 10', '560555', 'Singapore']}, 'categories': [{'id': '4bf58dd8d48988d120951735', 'name': 'Food Court', 'pluralName': 'Food Courts', 'shortName': 'Food Court', 'icon': {'prefix': 'https://ss3.4sqi.net/img/categories_v2/shops/food_foodcourt_', 'suffix': '.png'}, 'primary': True}], 'photos': {'count': 0, 'groups': []}}, 'referralId': 'e-0-4bd40b55462cb713faaddf07-2'}, {'reasons': {'count': 0, 'items': [{'summary': 'This spot is popular', 'type': 'general', 'reasonName': 'globalInteractionReason'}]}, 'venue': {'id': '4c42776ed7fad13af04709da', 'name': 'Seng Kee Bak Kut Teh', 'location': {'address': '453A Ang Mo Kio Ave 10', 'crossStreet': '#01-31, Chong Boon Food Centre', 'lat': 1.3681038801243812, 'lng': 103.85611701439235, 'labeledLatLngs': [{'label': 'display', 'lat': 1.3681038801243812, 'lng': 103.85611701439235}], 'distance': 29, 'cc': 'SG', 'city': 'Singapore', 'country': 'Singapore', 'formattedAddress': ['453A Ang Mo Kio Ave 10 (#01-31, Chong Boon Food Centre)', 'Singapore']}, 'categories': [{'id': '4bf58dd8d48988d145941735', 'name': 'Chinese Restaurant', 'pluralName': 'Chinese Restaurants', 'shortName': 'Chinese', 'icon': {'prefix': 'https://ss3.4sqi.net/img/categories_v2/food/asian_', 'suffix': '.png'}, 'primary': True}], 'photos': {'count': 0, 'groups': []}}, 'referralId': 'e-0-4c42776ed7fad13af04709da-3'}, {'reasons': {'count': 0, 'items': [{'summary': 'This spot is popular', 'type': 'general', 'reasonName': 'globalInteractionReason'}]}, 'venue': {'id': '4e0febc645dde6c62dc653df', 'name': 'Macpherson Hai Sing Kway Chap', 'location': {'address': '01-27 Chong Boon Market & Food Centre', 'crossStreet': '453A Ang Mo Kio Ave. 10', 'lat': 1.3681104132847532, 'lng': 103.85612261909658, 'labeledLatLngs': [{'label': 'display', 'lat': 1.3681104132847532, 'lng': 103.85612261909658}], 'distance': 28, 'cc': 'SG', 'city': 'Singapore', 'country': 'Singapore', 'formattedAddress': ['01-27 Chong Boon Market & Food Centre (453A Ang Mo Kio Ave. 10)', 'Singapore']}, 'categories': [{'id': '4bf58dd8d48988d145941735', 'name': 'Chinese Restaurant', 'pluralName': 'Chinese Restaurants', 'shortName': 'Chinese', 'icon': {'prefix': 'https://ss3.4sqi.net/img/categories_v2/food/asian_', 'suffix': '.png'}, 'primary': True}], 'photos': {'count': 0, 'groups': []}}, 'referralId': 'e-0-4e0febc645dde6c62dc653df-4'}, {'reasons': {'count': 0, 'items': [{'summary': 'This spot is popular', 'type': 'general', 'reasonName': 'globalInteractionReason'}]}, 'venue': {'id': '4cfc626ac6cca35d587b9132', 'name': 'Ang Mo Kio Loh Mee Laksa', 'location': {'address': '#01-99 Chong Boon Market & Food Centre', 'crossStreet': '453A Ang Mo Kio Ave. 10', 'lat': 1.367907237727221, 'lng': 103.85632921027907, 'labeledLatLngs': [{'label': 'display', 'lat': 1.367907237727221, 'lng': 103.85632921027907}], 'distance': 33, 'cc': 'SG', 'neighborhood': 'Ang Mo Kio', 'city': 'Singapore', 'country': 'Singapore', 'formattedAddress': ['#01-99 Chong Boon Market & Food Centre (453A Ang Mo Kio Ave. 10)', 'Singapore']}, 'categories': [{'id': '4bf58dd8d48988d145941735', 'name': 'Chinese Restaurant', 'pluralName': 'Chinese Restaurants', 'shortName': 'Chinese', 'icon': {'prefix': 'https://ss3.4sqi.net/img/categories_v2/food/asian_', 'suffix': '.png'}, 'primary': True}], 'photos': {'count': 0, 'groups': []}}, 'referralId': 'e-0-4cfc626ac6cca35d587b9132-5'}, {'reasons': {'count': 0, 'items': [{'summary': 'This spot is popular', 'type': 'general', 'reasonName': 'globalInteractionReason'}]}, 'venue': {'id': '4bdb9731c79cc9285db283e9', 'name': 'Chia Keng Kway Teow Mee', 'location': {'address': '453A Ang Mo Kio Ave 10 #01-36', 'lat': 1.3682426349330692, 'lng': 103.85602784354735, 'labeledLatLngs': [{'label': 'display', 'lat': 1.3682426349330692, 'lng': 103.85602784354735}], 'distance': 37, 'postalCode': '561453', 'cc': 'SG', 'city': 'Singapore', 'country': 'Singapore', 'formattedAddress': ['453A Ang Mo Kio Ave 10 #01-36', '561453', 'Singapore']}, 'categories': [{'id': '4bf58dd8d48988d145941735', 'name': 'Chinese Restaurant', 'pluralName': 'Chinese Restaurants', 'shortName': 'Chinese', 'icon': {'prefix': 'https://ss3.4sqi.net/img/categories_v2/food/asian_', 'suffix': '.png'}, 'primary': True}], 'photos': {'count': 0, 'groups': []}}, 'referralId': 'e-0-4bdb9731c79cc9285db283e9-6'}, {'reasons': {'count': 0, 'items': [{'summary': 'This spot is popular', 'type': 'general', 'reasonName': 'globalInteractionReason'}]}, 'venue': {'id': '4ced3677f368b1f76e9779f7', 'name': 'Fu Lee Seafood', 'location': {'address': 'Blk 5007', 'lat': 1.3707499349855587, 'lng': 103.85778723349797, 'labeledLatLngs': [{'label': 'display', 'lat': 1.3707499349855587, 'lng': 103.85778723349797}], 'distance': 324, 'cc': 'SG', 'city': 'Ang mo kio ave 10', 'country': 'Singapore', 'formattedAddress': ['Blk 5007', 'Singapore']}, 'categories': [{'id': '4bf58dd8d48988d145941735', 'name': 'Chinese Restaurant', 'pluralName': 'Chinese Restaurants', 'shortName': 'Chinese', 'icon': {'prefix': 'https://ss3.4sqi.net/img/categories_v2/food/asian_', 'suffix': '.png'}, 'primary': True}], 'photos': {'count': 0, 'groups': []}}, 'referralId': 'e-0-4ced3677f368b1f76e9779f7-7'}, {'reasons': {'count': 0, 'items': [{'summary': 'This spot is popular', 'type': 'general', 'reasonName': 'globalInteractionReason'}]}, 'venue': {'id': '4ef72b4302d5abdcbb36b35c', 'name': 'Hock Heng Family Restaurant 福興菜館', 'location': {'address': '555 Ang Mo Kio Ave 10', 'lat': 1.3711394274760416, 'lng': 103.85669235105476, 'labeledLatLngs': [{'label': 'display', 'lat': 1.3711394274760416, 'lng': 103.85669235105476}], 'distance': 328, 'postalCode': '560555', 'cc': 'SG', 'city': 'Singapore', 'country': 'Singapore', 'formattedAddress': ['555 Ang Mo Kio Ave 10', '560555', 'Singapore']}, 'categories': [{'id': '4bf58dd8d48988d145941735', 'name': 'Chinese Restaurant', 'pluralName': 'Chinese Restaurants', 'shortName': 'Chinese', 'icon': {'prefix': 'https://ss3.4sqi.net/img/categories_v2/food/asian_', 'suffix': '.png'}, 'primary': True}], 'photos': {'count': 0, 'groups': []}}, 'referralId': 'e-0-4ef72b4302d5abdcbb36b35c-8'}, {'reasons': {'count': 0, 'items': [{'summary': 'This spot is popular', 'type': 'general', 'reasonName': 'globalInteractionReason'}]}, 'venue': {'id': '5d5006d932ac8d00087496ac', 'name': '$1.30 Dim Sum', 'location': {'address': '555 Ang Mo Kio Ave 10', 'lat': 1.370559, 'lng': 103.856884, 'labeledLatLngs': [{'label': 'display', 'lat': 1.370559, 'lng': 103.856884}], 'distance': 268, 'postalCode': '560555', 'cc': 'SG', 'city': 'Ang Mo Kio', 'country': 'Singapore', 'formattedAddress': ['555 Ang Mo Kio Ave 10', '560555', 'Singapore']}, 'categories': [{'id': '4bf58dd8d48988d1f5931735', 'name': 'Dim Sum Restaurant', 'pluralName': 'Dim Sum Restaurants', 'shortName': 'Dim Sum', 'icon': {'prefix': 'https://ss3.4sqi.net/img/categories_v2/food/dimsum_', 'suffix': '.png'}, 'primary': True}], 'photos': {'count': 0, 'groups': []}}, 'referralId': 'e-0-5d5006d932ac8d00087496ac-9'}, {'reasons': {'count': 0, 'items': [{'summary': 'This spot is popular', 'type': 'general', 'reasonName': 'globalInteractionReason'}]}, 'venue': {'id': '4d94005a45ae54818890fbeb', 'name': 'Sin Kee Chicken Rice', 'location': {'address': '#01-19 Chong Boon Market & Food Centre', 'crossStreet': '453A Ang Mo Kio Ave 10', 'lat': 1.367972, 'lng': 103.85653, 'labeledLatLngs': [{'label': 'display', 'lat': 1.367972, 'lng': 103.85653}], 'distance': 32, 'cc': 'SG', 'city': 'Singapore', 'country': 'Singapore', 'formattedAddress': ['#01-19 Chong Boon Market & Food Centre (453A Ang Mo Kio Ave 10)', 'Singapore']}, 'categories': [{'id': '52af3abe3cf9994f4e043bf2', 'name': 'Hainan Restaurant', 'pluralName': 'Hainan Restaurants', 'shortName': 'Hainan', 'icon': {'prefix': 'https://ss3.4sqi.net/img/categories_v2/food/asian_', 'suffix': '.png'}, 'primary': True}], 'photos': {'count': 0, 'groups': []}}, 'referralId': 'e-0-4d94005a45ae54818890fbeb-10'}]"
Kebun Bahru,21616.9725,1.4883459,103.7506999,"https://api.foursquare.com/v2/venues/explore?&client_id=34FUW3QDQCJ1CAO5MNVIJKAJYPROU1WCAGADR0XPIW4PCIIY&client_secret=WJXWNURD13KVAKNQTHJYZDMRFHE4VSESQMKQWN0XGHKTP5MZ&v=20180604&ll=1.4883459,103.7506999&radius=500&categoryId=4bf58dd8d48988d145941735&limit=200","[{'reasons': {'count': 0, 'items': [{'summary': 'This spot is popular', 'type': 'general', 'reasonName': 'globalInteractionReason'}]}, 'venue': {'id': '4d6f1cde56dea09371b6bb8c', 'name': 'Restoran Tua Thow 大頭餐室', 'location': {'address': 'Susur 4, Jalan Tun Abdul Razak', 'crossStreet': 'Next to Shell petrol station', 'lat': 1.4842552650508183, 'lng': 103.75191171235585, 'labeledLatLngs': [{'label': 'display', 'lat': 1.4842552650508183, 'lng': 103.75191171235585}], 'distance': 474, 'cc': 'MY', 'city': 'Johor Bahru', 'state': 'Johor', 'country': 'Malaysia', 'formattedAddress': ['Susur 4, Jalan Tun Abdul Razak (Next to Shell petrol station)', 'Johor Bahru, Johor', 'Malaysia']}, 'categories': [{'id': '4bf58dd8d48988d145941735', 'name': 'Chinese Restaurant', 'pluralName': 'Chinese Restaurants', 'shortName': 'Chinese', 'icon': {'prefix': 'https://ss3.4sqi.net/img/categories_v2/food/asian_', 'suffix': '.png'}, 'primary': True}], 'photos': {'count': 0, 'groups': []}}, 'referralId': 'e-0-4d6f1cde56dea09371b6bb8c-0'}, {'reasons': {'count': 0, 'items': [{'summary': 'This spot is popular', 'type': 'general', 'reasonName': 'globalInteractionReason'}]}, 'venue': {'id': '563edc9acd10d28866d2e04e', 'name': 'Eleven Kitchen', 'location': {'address': '49 Jalan Kebun Teh 1', 'crossStreet': 'Pusat Perdagangan Kebun Teh', 'lat': 1.4877232047647864, 'lng': 103.75514046653588, 'labeledLatLngs': [{'label': 'display', 'lat': 1.4877232047647864, 'lng': 103.75514046653588}], 'distance': 498, 'postalCode': '80250', 'cc': 'MY', 'city': 'Johor Bahru', 'state': 'Johor Darul Tazim', 'country': 'Malaysia', 'formattedAddress': ['49 Jalan Kebun Teh 1 (Pusat Perdagangan Kebun Teh)', '80250 Johor Bahru, Johor Darul Tazim', 'Malaysia']}, 'categories': [{'id': '4bf58dd8d48988d142941735', 'name': 'Asian Restaurant', 'pluralName': 'Asian Restaurants', 'shortName': 'Asian', 'icon': {'prefix': 'https://ss3.4sqi.net/img/categories_v2/food/asian_', 'suffix': '.png'}, 'primary': True}], 'photos': {'count': 0, 'groups': []}}, 'referralId': 'e-0-563edc9acd10d28866d2e04e-1'}, {'reasons': {'count': 0, 'items': [{'summary': 'This spot is popular', 'type': 'general', 'reasonName': 'globalInteractionReason'}]}, 'venue': {'id': '4dae5a9d43a1f97d9189dad0', 'name': '華名咖啡店', 'location': {'address': 'Jalan Serantau', 'lat': 1.4875485743573649, 'lng': 103.75258307442803, 'labeledLatLngs': [{'label': 'display', 'lat': 1.4875485743573649, 'lng': 103.75258307442803}], 'distance': 227, 'postalCode': '80350', 'cc': 'MY', 'city': 'Johor Bahru', 'state': 'Johor', 'country': 'Malaysia', 'formattedAddress': ['Jalan Serantau', '80350 Johor Bahru, Johor', 'Malaysia']}, 'categories': [{'id': '4bf58dd8d48988d145941735', 'name': 'Chinese Restaurant', 'pluralName': 'Chinese Restaurants', 'shortName': 'Chinese', 'icon': {'prefix': 'https://ss3.4sqi.net/img/categories_v2/food/asian_', 'suffix': '.png'}, 'primary': True}], 'photos': {'count': 0, 'groups': []}}, 'referralId': 'e-0-4dae5a9d43a1f97d9189dad0-2'}, {'reasons': {'count': 0, 'items': [{'summary': 'This spot is popular', 'type': 'general', 'reasonName': 'globalInteractionReason'}]}, 'venue': {'id': '577b964e498e9b4c35bf6bb9', 'name': '汶強粿條仔', 'location': {'lat': 1.486363, 'lng': 103.746833, 'labeledLatLngs': [{'label': 'display', 'lat': 1.486363, 'lng': 103.746833}], 'distance': 483, 'cc': 'MY', 'country': 'Malaysia', 'formattedAddress': ['Malaysia']}, 'categories': [{'id': '4bf58dd8d48988d145941735', 'name': 'Chinese Restaurant', 'pluralName': 'Chinese Restaurants', 'shortName': 'Chinese', 'icon': {'prefix': 'https://ss3.4sqi.net/img/categories_v2/food/asian_', 'suffix': '.png'}, 'primary': True}], 'photos': {'count': 0, 'groups': []}}, 'referralId': 'e-0-577b964e498e9b4c35bf6bb9-3'}]"
Sembawang Hills,7657.9094,1.3723986,103.8290294792003,"https://api.foursquare.com/v2/venues/explore?&client_id=34FUW3QDQCJ1CAO5MNVIJKAJYPROU1WCAGADR0XPIW4PCIIY&client_secret=WJXWNURD13KVAKNQTHJYZDMRFHE4VSESQMKQWN0XGHKTP5MZ&v=20180604&ll=1.3723986,103.8290294792003&radius=500&categoryId=4bf58dd8d48988d145941735&limit=200","[{'reasons': {'count': 0, 'items': [{'summary': 'This spot is popular', 'type': 'general', 'reasonName': 'globalInteractionReason'}]}, 'venue': {'id': '4b079854f964a520e5fe22e3', 'name': 'Plum Village Restaurant', 'location': {'address': '16 Jalan Leban (off Upp Thomson Rd)', 'lat': 1.371834126572394, 'lng': 103.82901824188292, 'labeledLatLngs': [{'label': 'display', 'lat': 1.371834126572394, 'lng': 103.82901824188292}], 'distance': 62, 'cc': 'SG', 'neighborhood': 'Ang Mo Kio', 'city': 'Singapore', 'country': 'Singapore', 'formattedAddress': ['16 Jalan Leban (off Upp Thomson Rd)', 'Singapore']}, 'categories': [{'id': '4bf58dd8d48988d145941735', 'name': 'Chinese Restaurant', 'pluralName': 'Chinese Restaurants', 'shortName': 'Chinese', 'icon': {'prefix': 'https://ss3.4sqi.net/img/categories_v2/food/asian_', 'suffix': '.png'}, 'primary': True}], 'photos': {'count': 0, 'groups': []}}, 'referralId': 'e-0-4b079854f964a520e5fe22e3-0'}, {'reasons': {'count': 0, 'items': [{'summary': 'This spot is popular', 'type': 'general', 'reasonName': 'globalInteractionReason'}]}, 'venue': {'id': '4ccd4ef3c0378cfa5fa88c48', 'name': 'Springleaf Taiwan Restaurant', 'location': {'address': 'No.18 Jalan Leban Road', 'lat': 1.3718868284731847, 'lng': 103.82906977526974, 'labeledLatLngs': [{'label': 'display', 'lat': 1.3718868284731847, 'lng': 103.82906977526974}], 'distance': 57, 'postalCode': '57755', 'cc': 'SG', 'city': 'Singapore', 'country': 'Singapore', 'formattedAddress': ['No.18 Jalan Leban Road', '57755', 'Singapore']}, 'categories': [{'id': '4bf58dd8d48988d145941735', 'name': 'Chinese Restaurant', 'pluralName': 'Chinese Restaurants', 'shortName': 'Chinese', 'icon': {'prefix': 'https://ss3.4sqi.net/img/categories_v2/food/asian_', 'suffix': '.png'}, 'primary': True}], 'photos': {'count': 0, 'groups': []}}, 'referralId': 'e-0-4ccd4ef3c0378cfa5fa88c48-1'}, {'reasons': {'count': 0, 'items': [{'summary': 'This spot is popular', 'type': 'general', 'reasonName': 'globalInteractionReason'}]}, 'venue': {'id': '4f6852e6e4b04bea437c3ca1', 'name': 'Ah Ee Traditional Hokkien Salted Duck', 'location': {'address': '#01-28 Sembawang Hill Food Centre', 'crossStreet': '590 Upper Thomson Rd.', 'lat': 1.3725179433822632, 'lng': 103.82894134521484, 'labeledLatLngs': [{'label': 'display', 'lat': 1.3725179433822632, 'lng': 103.82894134521484}], 'distance': 16, 'postalCode': '574419', 'cc': 'SG', 'city': 'Singapore', 'country': 'Singapore', 'formattedAddress': ['#01-28 Sembawang Hill Food Centre (590 Upper Thomson Rd.)', '574419', 'Singapore']}, 'categories': [{'id': '4bf58dd8d48988d145941735', 'name': 'Chinese Restaurant', 'pluralName': 'Chinese Restaurants', 'shortName': 'Chinese', 'icon': {'prefix': 'https://ss3.4sqi.net/img/categories_v2/food/asian_', 'suffix': '.png'}, 'primary': True}], 'photos': {'count': 0, 'groups': []}}, 'referralId': 'e-0-4f6852e6e4b04bea437c3ca1-2'}, {'reasons': {'count': 0, 'items': [{'summary': 'This spot is popular', 'type': 'general', 'reasonName': 'globalInteractionReason'}]}, 'venue': {'id': '4d0ca12c80105481c89a1996', 'name': 'Lai Heng Fried Kway Teow', 'location': {'address': '#01-15, Sembawang Hills Food Centre', 'crossStreet': '590 Upper Thomson Rd.', 'lat': 1.372244915779483, 'lng': 103.82884069348346, 'labeledLatLngs': [{'label': 'display', 'lat': 1.372244915779483, 'lng': 103.82884069348346}], 'distance': 27, 'postalCode': '574419', 'cc': 'SG', 'city': 'Singapore', 'country': 'Singapore', 'formattedAddress': ['#01-15, Sembawang Hills Food Centre (590 Upper Thomson Rd.)', '574419', 'Singapore']}, 'categories': [{'id': '4bf58dd8d48988d145941735', 'name': 'Chinese Restaurant', 'pluralName': 'Chinese Restaurants', 'shortName': 'Chinese', 'icon': {'prefix': 'https://ss3.4sqi.net/img/categories_v2/food/asian_', 'suffix': '.png'}, 'primary': True}], 'photos': {'count': 0, 'groups': []}}, 'referralId': 'e-0-4d0ca12c80105481c89a1996-3'}, {'reasons': {'count': 0, 'items': [{'summary': 'This spot is popular', 'type': 'general', 'reasonName': 'globalInteractionReason'}]}, 'venue': {'id': '5aa118ecc9f907498690bb20', 'name': 'Bee Heong Palace Restaurant', 'location': {'address': '4 Jalan Leban', 'lat': 1.37157, 'lng': 103.828754, 'labeledLatLngs': [{'label': 'display', 'lat': 1.37157, 'lng': 103.828754}], 'distance': 97, 'postalCode': '577548', 'cc': 'SG', 'city': 'Thomson', 'state': 'Singapore', 'country': 'Singapore', 'formattedAddress': ['4 Jalan Leban', '577548', 'Singapore']}, 'categories': [{'id': '4bf58dd8d48988d145941735', 'name': 'Chinese Restaurant', 'pluralName': 'Chinese Restaurants', 'shortName': 'Chinese', 'icon': {'prefix': 'https://ss3.4sqi.net/img/categories_v2/food/asian_', 'suffix': '.png'}, 'primary': True}], 'photos': {'count': 0, 'groups': []}}, 'referralId': 'e-0-5aa118ecc9f907498690bb20-4'}, {'reasons': {'count': 0, 'items': [{'summary': 'This spot is popular', 'type': 'general', 'reasonName': 'globalInteractionReason'}]}, 'venue': {'id': '4c2fef33213c2d7f03d0315d', 'name': 'San Ba Wang Guo Zhi Shu Shi', 'location': {'address': '#01-06, Sembawang Hills Food Centre', 'crossStreet': '590 Upper Thomson Road', 'lat': 1.37261050586698, 'lng': 103.82904822134981, 'labeledLatLngs': [{'label': 'display', 'lat': 1.37261050586698, 'lng': 103.82904822134981}], 'distance': 23, 'postalCode': '574419', 'cc': 'SG', 'city': 'Singapore', 'country': 'Singapore', 'formattedAddress': ['#01-06, Sembawang Hills Food Centre (590 Upper Thomson Road)', '574419', 'Singapore']}, 'categories': [{'id': '4bf58dd8d48988d145941735', 'name': 'Chinese Restaurant', 'pluralName': 'Chinese Restaurants', 'shortName': 'Chinese', 'icon': {'prefix': 'https://ss3.4sqi.net/img/categories_v2/food/asian_', 'suffix': '.png'}, 'primary': True}], 'photos': {'count': 0, 'groups': []}}, 'referralId': 'e-0-4c2fef33213c2d7f03d0315d-5'}, {'reasons': {'count': 0, 'items': [{'summary': 'This spot is popular', 'type': 'general', 'reasonName': 'globalInteractionReason'}]}, 'venue': {'id': '4bb35d5e715eef3b313586bb', 'name': 'Ban Leong Wah Hoe Seafood', 'location': {'address': '124 Casuarina Road', 'lat': 1.3767400547173352, 'lng': 103.8281072990153, 'labeledLatLngs': [{'label': 'display', 'lat': 1.3767400547173352, 'lng': 103.8281072990153}], 'distance': 494, 'postalCode': '579512', 'cc': 'SG', 'city': 'Singapore', 'country': 'Singapore', 'formattedAddress': ['124 Casuarina Road', '579512', 'Singapore']}, 'categories': [{'id': '4bf58dd8d48988d1ce941735', 'name': 'Seafood Restaurant', 'pluralName': 'Seafood Restaurants', 'shortName': 'Seafood', 'icon': {'prefix': 'https://ss3.4sqi.net/img/categories_v2/food/seafood_', 'suffix': '.png'}, 'primary': True}], 'photos': {'count': 0, 'groups': []}}, 'referralId': 'e-0-4bb35d5e715eef3b313586bb-6'}, {'reasons': {'count': 0, 'items': [{'summary': 'This spot is popular', 'type': 'general', 'reasonName': 'globalInteractionReason'}]}, 'venue': {'id': '585bdb30040d5373f7ceb221', 'name': 'Yi Dian Xin Hong Kong Dim Sum 一点心港式点心', 'location': {'address': '2 Jalan Leban', 'lat': 1.371455, 'lng': 103.828878, 'labeledLatLngs': [{'label': 'display', 'lat': 1.371455, 'lng': 103.828878}], 'distance': 106, 'postalCode': '577547', 'cc': 'SG', 'city': 'Thomson', 'state': 'Singapore', 'country': 'Singapore', 'formattedAddress': ['2 Jalan Leban', '577547', 'Singapore']}, 'categories': [{'id': '4bf58dd8d48988d1f5931735', 'name': 'Dim Sum Restaurant', 'pluralName': 'Dim Sum Restaurants', 'shortName': 'Dim Sum', 'icon': {'prefix': 'https://ss3.4sqi.net/img/categories_v2/food/dimsum_', 'suffix': '.png'}, 'primary': True}], 'photos': {'count': 0, 'groups': []}}, 'referralId': 'e-0-585bdb30040d5373f7ceb221-7'}, {'reasons': {'count': 0, 'items': [{'summary': 'This spot is popular', 'type': 'general', 'reasonName': 'globalInteractionReason'}]}, 'venue': {'id': '56d2deb1cd10d5a1e48da9be', 'name': 'Hwa Seafood', 'location': {'address': '8 Jalan Gelanggang', 'lat': 1.3730117432010038, 'lng': 103.82945759698721, 'labeledLatLngs': [{'label': 'display', 'lat': 1.3730117432010038, 'lng': 103.82945759698721}], 'distance': 83, 'postalCode': '578190', 'cc': 'SG', 'country': 'Singapore', 'formattedAddress': ['8 Jalan Gelanggang', '578190', 'Singapore']}, 'categories': [{'id': '52af3ba23cf9994f4e043c08', 'name': 'Zhejiang Restaurant', 'pluralName': 'Zhejiang Restaurants', 'shortName': 'Zhejiang', 'icon': {'prefix': 'https://ss3.4sqi.net/img/categories_v2/food/asian_', 'suffix': '.png'}, 'primary': True}], 'photos': {'count': 0, 'groups': []}}, 'referralId': 'e-0-56d2deb1cd10d5a1e48da9be-8'}]"
Shangri-La,23201.0467,1.3112474,103.8267568,"https://api.foursquare.com/v2/venues/explore?&client_id=34FUW3QDQCJ1CAO5MNVIJKAJYPROU1WCAGADR0XPIW4PCIIY&client_secret=WJXWNURD13KVAKNQTHJYZDMRFHE4VSESQMKQWN0XGHKTP5MZ&v=20180604&ll=1.3112474,103.8267568&radius=500&categoryId=4bf58dd8d48988d145941735&limit=200","[{'reasons': {'count': 0, 'items': [{'summary': 'This spot is popular', 'type': 'general', 'reasonName': 'globalInteractionReason'}]}, 'venue': {'id': '4b058812f964a520bcaf22e3', 'name': 'Shang Palace', 'location': {'address': 'Shangri-La Hotel', 'crossStreet': '22 Orange Grove Road', 'lat': 1.3109782954830291, 'lng': 103.82665710086009, 'labeledLatLngs': [{'label': 'display', 'lat': 1.3109782954830291, 'lng': 103.82665710086009}], 'distance': 31, 'postalCode': '258350', 'cc': 'SG', 'city': 'Singapore', 'country': 'Singapore', 'formattedAddress': ['Shangri-La Hotel (22 Orange Grove Road)', '258350', 'Singapore']}, 'categories': [{'id': '52af3a7c3cf9994f4e043bed', 'name': 'Cantonese Restaurant', 'pluralName': 'Cantonese Restaurants', 'shortName': 'Cantonese', 'icon': {'prefix': 'https://ss3.4sqi.net/img/categories_v2/food/asian_', 'suffix': '.png'}, 'primary': True}], 'photos': {'count': 0, 'groups': []}}, 'referralId': 'e-0-4b058812f964a520bcaf22e3-0'}, {'reasons': {'count': 0, 'items': [{'summary': 'This spot is popular', 'type': 'general', 'reasonName': 'globalInteractionReason'}]}, 'venue': {'id': '4b5c0a2bf964a520142229e3', 'name': 'Teochew Restaurant Huat Kee (1998) Pte Ltd', 'location': {'address': '#02-01, RELC Building', 'crossStreet': '30 Orange Grove Road', 'lat': 1.3128636297017737, 'lng': 103.82594794191587, 'labeledLatLngs': [{'label': 'display', 'lat': 1.3128636297017737, 'lng': 103.82594794191587}], 'distance': 201, 'postalCode': '258362', 'cc': 'SG', 'city': 'Singapore', 'country': 'Singapore', 'formattedAddress': ['#02-01, RELC Building (30 Orange Grove Road)', '258362', 'Singapore']}, 'categories': [{'id': '4bf58dd8d48988d145941735', 'name': 'Chinese Restaurant', 'pluralName': 'Chinese Restaurants', 'shortName': 'Chinese', 'icon': {'prefix': 'https://ss3.4sqi.net/img/categories_v2/food/asian_', 'suffix': '.png'}, 'primary': True}], 'photos': {'count': 0, 'groups': []}}, 'referralId': 'e-0-4b5c0a2bf964a520142229e3-1'}, {'reasons': {'count': 0, 'items': [{'summary': 'This spot is popular', 'type': 'general', 'reasonName': 'globalInteractionReason'}]}, 'venue': {'id': '4b058812f964a520b2af22e3', 'name': 'Hua Ting Restaurant 華廳 (Hua Ting Restaurant)', 'location': {'address': 'Level 2 Orchard Hotel', 'crossStreet': '442 Orchard Rd', 'lat': 1.3080775699105498, 'lng': 103.82815246416432, 'labeledLatLngs': [{'label': 'display', 'lat': 1.3080775699105498, 'lng': 103.82815246416432}], 'distance': 385, 'postalCode': '238879', 'cc': 'SG', 'city': 'Singapore', 'country': 'Singapore', 'formattedAddress': ['Level 2 Orchard Hotel (442 Orchard Rd)', '238879', 'Singapore']}, 'categories': [{'id': '4bf58dd8d48988d1f5931735', 'name': 'Dim Sum Restaurant', 'pluralName': 'Dim Sum Restaurants', 'shortName': 'Dim Sum', 'icon': {'prefix': 'https://ss3.4sqi.net/img/categories_v2/food/dimsum_', 'suffix': '.png'}, 'primary': True}], 'photos': {'count': 0, 'groups': []}}, 'referralId': 'e-0-4b058812f964a520b2af22e3-2'}, {'reasons': {'count': 0, 'items': [{'summary': 'This spot is popular', 'type': 'general', 'reasonName': 'globalInteractionReason'}]}, 'venue': {'id': '5ae1792fd3cce8002c14f73e', 'name': 'Blue Lotus Chinese Grill House', 'location': {'address': '30 Stevens Road #01-03, Novotel Singapore on Stevens', 'lat': 1.313497, 'lng': 103.828752, 'labeledLatLngs': [{'label': 'display', 'lat': 1.313497, 'lng': 103.828752}], 'distance': 334, 'postalCode': '257840', 'cc': 'SG', 'city': 'Orchard', 'state': 'Singapore', 'country': 'Singapore', 'formattedAddress': ['30 Stevens Road #01-03, Novotel Singapore on Stevens', '257840', 'Singapore']}, 'categories': [{'id': '4bf58dd8d48988d145941735', 'name': 'Chinese Restaurant', 'pluralName': 'Chinese Restaurants', 'shortName': 'Chinese', 'icon': {'prefix': 'https://ss3.4sqi.net/img/categories_v2/food/asian_', 'suffix': '.png'}, 'primary': True}], 'photos': {'count': 0, 'groups': []}}, 'referralId': 'e-0-5ae1792fd3cce8002c14f73e-3'}, {'reasons': {'count': 0, 'items': [{'summary': 'This spot is popular', 'type': 'general', 'reasonName': 'globalInteractionReason'}]}, 'venue': {'id': '5969e78f9e0d545beae03223', 'name': '華廳Steamboat', 'location': {'address': 'Claymore Connect', 'lat': 1.307875, 'lng': 103.828243, 'labeledLatLngs': [{'label': 'display', 'lat': 1.307875, 'lng': 103.828243}], 'distance': 410, 'postalCode': '238879', 'cc': 'SG', 'city': 'Orchard', 'state': 'Singapore', 'country': 'Singapore', 'formattedAddress': ['Claymore Connect', '238879', 'Singapore']}, 'categories': [{'id': '4bf58dd8d48988d145941735', 'name': 'Chinese Restaurant', 'pluralName': 'Chinese Restaurants', 'shortName': 'Chinese', 'icon': {'prefix': 'https://ss3.4sqi.net/img/categories_v2/food/asian_', 'suffix': '.png'}, 'primary': True}], 'photos': {'count': 0, 'groups': []}}, 'referralId': 'e-0-5969e78f9e0d545beae03223-4'}, {'reasons': {'count': 0, 'items': [{'summary': 'This spot is popular', 'type': 'general', 'reasonName': 'globalInteractionReason'}]}, 'venue': {'id': '4fb9d1c5e4b0310b9bef5c33', 'name': 'Noodles', 'location': {'address': 'Lobby, Orchard Hotel', 'crossStreet': '442 Orchard Rd.', 'lat': 1.307784942030401, 'lng': 103.82792429882707, 'labeledLatLngs': [{'label': 'display', 'lat': 1.307784942030401, 'lng': 103.82792429882707}], 'distance': 406, 'cc': 'SG', 'city': 'Singapore', 'country': 'Singapore', 'formattedAddress': ['Lobby, Orchard Hotel (442 Orchard Rd.)', 'Singapore']}, 'categories': [{'id': '4bf58dd8d48988d145941735', 'name': 'Chinese Restaurant', 'pluralName': 'Chinese Restaurants', 'shortName': 'Chinese', 'icon': {'prefix': 'https://ss3.4sqi.net/img/categories_v2/food/asian_', 'suffix': '.png'}, 'primary': True}], 'photos': {'count': 0, 'groups': []}}, 'referralId': 'e-0-4fb9d1c5e4b0310b9bef5c33-5'}, {'reasons': {'count': 0, 'items': [{'summary': 'This spot is popular', 'type': 'general', 'reasonName': 'globalInteractionReason'}]}, 'venue': {'id': '4c67ce30aebea593ecef76d0', 'name': 'Orchard Cafe', 'location': {'address': 'Orchard Hotel', 'crossStreet': '442 Orchard Road', 'lat': 1.3077798253378377, 'lng': 103.82825195789336, 'labeledLatLngs': [{'label': 'display', 'lat': 1.3077798253378377, 'lng': 103.82825195789336}], 'distance': 420, 'postalCode': '238879', 'cc': 'SG', 'city': 'Singapore', 'country': 'Singapore', 'formattedAddress': ['Orchard Hotel (442 Orchard Road)', '238879', 'Singapore']}, 'categories': [{'id': '4bf58dd8d48988d142941735', 'name': 'Asian Restaurant', 'pluralName': 'Asian Restaurants', 'shortName': 'Asian', 'icon': {'prefix': 'https://ss3.4sqi.net/img/categories_v2/food/asian_', 'suffix': '.png'}, 'primary': True}], 'photos': {'count': 0, 'groups': []}}, 'referralId': 'e-0-4c67ce30aebea593ecef76d0-6'}]"
Tagore,2385.0239,1.3857511,103.8279926939064,"https://api.foursquare.com/v2/venues/explore?&client_id=34FUW3QDQCJ1CAO5MNVIJKAJYPROU1WCAGADR0XPIW4PCIIY&client_secret=WJXWNURD13KVAKNQTHJYZDMRFHE4VSESQMKQWN0XGHKTP5MZ&v=20180604&ll=1.3857511,103.8279926939064&radius=500&categoryId=4bf58dd8d48988d145941735&limit=200","[{'reasons': {'count': 0, 'items': [{'summary': 'This spot is popular', 'type': 'general', 'reasonName': 'globalInteractionReason'}]}, 'venue': {'id': '4e3d23fbd4c058f9dc00b388', 'name': '友吉餐室', 'location': {'lat': 1.3859491194832385, 'lng': 103.830108, 'labeledLatLngs': [{'label': 'display', 'lat': 1.3859491194832385, 'lng': 103.830108}], 'distance': 236, 'cc': 'SG', 'country': 'Singapore', 'formattedAddress': ['Singapore']}, 'categories': [{'id': '4bf58dd8d48988d145941735', 'name': 'Chinese Restaurant', 'pluralName': 'Chinese Restaurants', 'shortName': 'Chinese', 'icon': {'prefix': 'https://ss3.4sqi.net/img/categories_v2/food/asian_', 'suffix': '.png'}, 'primary': True}], 'photos': {'count': 0, 'groups': []}}, 'referralId': 'e-0-4e3d23fbd4c058f9dc00b388-0'}, {'reasons': {'count': 0, 'items': [{'summary': 'This spot is popular', 'type': 'general', 'reasonName': 'globalInteractionReason'}]}, 'venue': {'id': '5c9316f0894eac002b17d58f', 'name': 'Tian Wei Seafood', 'location': {'address': '81 Tagore Ln,', 'crossStreet': '#01-10', 'lat': 1.3865157539521804, 'lng': 103.82672175765038, 'labeledLatLngs': [{'label': 'display', 'lat': 1.3865157539521804, 'lng': 103.82672175765038}], 'distance': 165, 'postalCode': '787502', 'cc': 'SG', 'city': 'Singapore', 'country': 'Singapore', 'formattedAddress': ['81 Tagore Ln, (#01-10)', '787502', 'Singapore']}, 'categories': [{'id': '4bf58dd8d48988d145941735', 'name': 'Chinese Restaurant', 'pluralName': 'Chinese Restaurants', 'shortName': 'Chinese', 'icon': {'prefix': 'https://ss3.4sqi.net/img/categories_v2/food/asian_', 'suffix': '.png'}, 'primary': True}], 'photos': {'count': 0, 'groups': []}}, 'referralId': 'e-0-5c9316f0894eac002b17d58f-1'}, {'reasons': {'count': 0, 'items': [{'summary': 'This spot is popular', 'type': 'general', 'reasonName': 'globalInteractionReason'}]}, 'venue': {'id': '4e3d1f07a809ba757c054cde', 'name': '喜家庄', 'location': {'lat': 1.3860292301433013, 'lng': 103.83019916477143, 'labeledLatLngs': [{'label': 'display', 'lat': 1.3860292301433013, 'lng': 103.83019916477143}], 'distance': 247, 'cc': 'SG', 'country': 'Singapore', 'formattedAddress': ['Singapore']}, 'categories': [{'id': '4bf58dd8d48988d145941735', 'name': 'Chinese Restaurant', 'pluralName': 'Chinese Restaurants', 'shortName': 'Chinese', 'icon': {'prefix': 'https://ss3.4sqi.net/img/categories_v2/food/asian_', 'suffix': '.png'}, 'primary': True}], 'photos': {'count': 0, 'groups': []}}, 'referralId': 'e-0-4e3d1f07a809ba757c054cde-2'}, {'reasons': {'count': 0, 'items': [{'summary': 'This spot is popular', 'type': 'general', 'reasonName': 'globalInteractionReason'}]}, 'venue': {'id': '576f6af4498e0917af70e7e0', 'name': 'Camelia', 'location': {'address': '50 Tagore Lane #05', 'lat': 1.3833893537521362, 'lng': 103.8285903930664, 'labeledLatLngs': [{'label': 'display', 'lat': 1.3833893537521362, 'lng': 103.8285903930664}], 'distance': 271, 'cc': 'SG', 'city': 'Singapore', 'country': 'Singapore', 'formattedAddress': ['50 Tagore Lane #05', 'Singapore']}, 'categories': [{'id': '4bf58dd8d48988d145941735', 'name': 'Chinese Restaurant', 'pluralName': 'Chinese Restaurants', 'shortName': 'Chinese', 'icon': {'prefix': 'https://ss3.4sqi.net/img/categories_v2/food/asian_', 'suffix': '.png'}, 'primary': True}], 'photos': {'count': 0, 'groups': []}}, 'referralId': 'e-0-576f6af4498e0917af70e7e0-3'}]"
Townsville,38689.6047,1.3594914,103.8551716,"https://api.foursquare.com/v2/venues/explore?&client_id=34FUW3QDQCJ1CAO5MNVIJKAJYPROU1WCAGADR0XPIW4PCIIY&client_secret=WJXWNURD13KVAKNQTHJYZDMRFHE4VSESQMKQWN0XGHKTP5MZ&v=20180604&ll=1.3594914,103.8551716&radius=500&categoryId=4bf58dd8d48988d145941735&limit=200","[{'reasons': {'count': 0, 'items': [{'summary': 'This spot is popular', 'type': 'general', 'reasonName': 'globalInteractionReason'}]}, 'venue': {'id': '4c8a1afd1797236a255e5e88', 'name': 'Kian Seng Seafood Restaurant 建成海鲜馆', 'location': {'address': '4013 Ang Mo Kio Industrial Park 1', 'crossStreet': 'Ang Mo Kio Ave 10', 'lat': 1.358801969042067, 'lng': 103.85469570147679, 'labeledLatLngs': [{'label': 'display', 'lat': 1.358801969042067, 'lng': 103.85469570147679}], 'distance': 93, 'postalCode': '569629', 'cc': 'SG', 'city': 'Singapore', 'country': 'Singapore', 'formattedAddress': ['4013 Ang Mo Kio Industrial Park 1 (Ang Mo Kio Ave 10)', '569629', 'Singapore']}, 'categories': [{'id': '4bf58dd8d48988d145941735', 'name': 'Chinese Restaurant', 'pluralName': 'Chinese Restaurants', 'shortName': 'Chinese', 'icon': {'prefix': 'https://ss3.4sqi.net/img/categories_v2/food/asian_', 'suffix': '.png'}, 'primary': True}], 'photos': {'count': 0, 'groups': []}}, 'referralId': 'e-0-4c8a1afd1797236a255e5e88-0'}, {'reasons': {'count': 0, 'items': [{'summary': 'This spot is popular', 'type': 'general', 'reasonName': 'globalInteractionReason'}]}, 'venue': {'id': '4bbfff14abf495219ac1be93', 'name': 'AMK 408 Food House', 'location': {'address': '408 Ang Mo Kio Ave. 10', 'lat': 1.3625220179284958, 'lng': 103.85488734167396, 'labeledLatLngs': [{'label': 'display', 'lat': 1.3625220179284958, 'lng': 103.85488734167396}], 'distance': 338, 'cc': 'SG', 'city': 'Singapore', 'country': 'Singapore', 'formattedAddress': ['408 Ang Mo Kio Ave. 10', 'Singapore']}, 'categories': [{'id': '4bf58dd8d48988d145941735', 'name': 'Chinese Restaurant', 'pluralName': 'Chinese Restaurants', 'shortName': 'Chinese', 'icon': {'prefix': 'https://ss3.4sqi.net/img/categories_v2/food/asian_', 'suffix': '.png'}, 'primary': True}], 'photos': {'count': 0, 'groups': []}}, 'referralId': 'e-0-4bbfff14abf495219ac1be93-1'}, {'reasons': {'count': 0, 'items': [{'summary': 'This spot is popular', 'type': 'general', 'reasonName': 'globalInteractionReason'}]}, 'venue': {'id': '4fca1d57e4b098b3ef016294', 'name': 'San Yuan 汕源 Gourmet', 'location': {'address': 'Blk 409 Ang Mo Kio Avenue 10 #01-02', 'lat': 1.362960634361787, 'lng': 103.85557907594838, 'labeledLatLngs': [{'label': 'display', 'lat': 1.362960634361787, 'lng': 103.85557907594838}], 'distance': 388, 'postalCode': '560409', 'cc': 'SG', 'city': 'Singapore', 'country': 'Singapore', 'formattedAddress': ['Blk 409 Ang Mo Kio Avenue 10 #01-02', '560409', 'Singapore']}, 'categories': [{'id': '4bf58dd8d48988d145941735', 'name': 'Chinese Restaurant', 'pluralName': 'Chinese Restaurants', 'shortName': 'Chinese', 'icon': {'prefix': 'https://ss3.4sqi.net/img/categories_v2/food/asian_', 'suffix': '.png'}, 'primary': True}], 'photos': {'count': 0, 'groups': []}}, 'referralId': 'e-0-4fca1d57e4b098b3ef016294-2'}, {'reasons': {'count': 0, 'items': [{'summary': 'This spot is popular', 'type': 'general', 'reasonName': 'globalInteractionReason'}]}, 'venue': {'id': '4bc1bc1f4cdfc9b6bcfe9421', 'name': '4013 Coffee House', 'location': {'address': '4013 Ang Mo Kio Industrial Park 1', 'lat': 1.358685202498248, 'lng': 103.85483009002063, 'labeledLatLngs': [{'label': 'display', 'lat': 1.358685202498248, 'lng': 103.85483009002063}], 'distance': 97, 'cc': 'SG', 'city': 'Singapore', 'country': 'Singapore', 'formattedAddress': ['4013 Ang Mo Kio Industrial Park 1', 'Singapore']}, 'categories': [{'id': '4bf58dd8d48988d145941735', 'name': 'Chinese Restaurant', 'pluralName': 'Chinese Restaurants', 'shortName': 'Chinese', 'icon': {'prefix': 'https://ss3.4sqi.net/img/categories_v2/food/asian_', 'suffix': '.png'}, 'primary': True}], 'photos': {'count': 0, 'groups': []}}, 'referralId': 'e-0-4bc1bc1f4cdfc9b6bcfe9421-3'}, {'reasons': {'count': 0, 'items': [{'summary': 'This spot is popular', 'type': 'general', 'reasonName': 'globalInteractionReason'}]}, 'venue': {'id': '5243baf311d25a010175da26', 'name': 'Tong Fong Fatt Hainanese Chicken Rice', 'location': {'address': '#01-10 Blk 409 AMK Food Centre', 'lat': 1.363062, 'lng': 103.855373, 'labeledLatLngs': [{'label': 'display', 'lat': 1.363062, 'lng': 103.855373}], 'distance': 398, 'cc': 'SG', 'city': 'Singapore', 'country': 'Singapore', 'formattedAddress': ['#01-10 Blk 409 AMK Food Centre', 'Singapore']}, 'categories': [{'id': '4bf58dd8d48988d145941735', 'name': 'Chinese Restaurant', 'pluralName': 'Chinese Restaurants', 'shortName': 'Chinese', 'icon': {'prefix': 'https://ss3.4sqi.net/img/categories_v2/food/asian_', 'suffix': '.png'}, 'primary': True}], 'photos': {'count': 0, 'groups': []}}, 'referralId': 'e-0-5243baf311d25a010175da26-4'}, {'reasons': {'count': 0, 'items': [{'summary': 'This spot is popular', 'type': 'general', 'reasonName': 'globalInteractionReason'}]}, 'venue': {'id': '4ca5dbbb76d3a093eb79fb6a', 'name': '来来兴', 'location': {'address': 'Ang Mo Kio Blk 409 Market', 'lat': 1.3632902188905738, 'lng': 103.85520539129394, 'labeledLatLngs': [{'label': 'display', 'lat': 1.3632902188905738, 'lng': 103.85520539129394}], 'distance': 422, 'cc': 'SG', 'country': 'Singapore', 'formattedAddress': ['Ang Mo Kio Blk 409 Market', 'Singapore']}, 'categories': [{'id': '4bf58dd8d48988d145941735', 'name': 'Chinese Restaurant', 'pluralName': 'Chinese Restaurants', 'shortName': 'Chinese', 'icon': {'prefix': 'https://ss3.4sqi.net/img/categories_v2/food/asian_', 'suffix': '.png'}, 'primary': True}], 'photos': {'count': 0, 'groups': []}}, 'referralId': 'e-0-4ca5dbbb76d3a093eb79fb6a-5'}, {'reasons': {'count': 0, 'items': [{'summary': 'This spot is popular', 'type': 'general', 'reasonName': 'globalInteractionReason'}]}, 'venue': {'id': '4cc5633582388cfa08ef7435', 'name': 'Blk 409 AMK Market & Food Centre', 'location': {'address': '409 Ang Mo Kio Ave 10', 'lat': 1.36289165210107, 'lng': 103.8553441325199, 'labeledLatLngs': [{'label': 'display', 'lat': 1.36289165210107, 'lng': 103.8553441325199}], 'distance': 378, 'postalCode': '560409', 'cc': 'SG', 'city': 'Singapore', 'country': 'Singapore', 'formattedAddress': ['409 Ang Mo Kio Ave 10', '560409', 'Singapore']}, 'categories': [{'id': '50be8ee891d4fa8dcc7199a7', 'name': 'Market', 'pluralName': 'Markets', 'shortName': 'Market', 'icon': {'prefix': 'https://ss3.4sqi.net/img/categories_v2/shops/market_', 'suffix': '.png'}, 'primary': True}], 'photos': {'count': 0, 'groups': []}}, 'referralId': 'e-0-4cc5633582388cfa08ef7435-6'}]"
Yio Chu Kang,22.0824,1.3817905,103.8449359,"https://api.foursquare.com/v2/venues/explore?&client_id=34FUW3QDQCJ1CAO5MNVIJKAJYPROU1WCAGADR0XPIW4PCIIY&client_secret=WJXWNURD13KVAKNQTHJYZDMRFHE4VSESQMKQWN0XGHKTP5MZ&v=20180604&ll=1.3817905,103.8449359&radius=500&categoryId=4bf58dd8d48988d145941735&limit=200","[{'reasons': {'count': 0, 'items': [{'summary': 'This spot is popular', 'type': 'general', 'reasonName': 'globalInteractionReason'}]}, 'venue': {'id': '4d322952c6cba35d32911e7a', 'name': '香记粥 (Xiang Ji Porridge)', 'location': {'address': '01-81 Blk 628 Ang Mo Kio Avenue 4', 'crossStreet': 'Ang Mo Kio Street 61', 'lat': 1.381202, 'lng': 103.840782, 'labeledLatLngs': [{'label': 'display', 'lat': 1.381202, 'lng': 103.840782}], 'distance': 466, 'postalCode': '560628', 'cc': 'SG', 'city': 'Singapore', 'country': 'Singapore', 'formattedAddress': ['01-81 Blk 628 Ang Mo Kio Avenue 4 (Ang Mo Kio Street 61)', '560628', 'Singapore']}, 'categories': [{'id': '4bf58dd8d48988d145941735', 'name': 'Chinese Restaurant', 'pluralName': 'Chinese Restaurants', 'shortName': 'Chinese', 'icon': {'prefix': 'https://ss3.4sqi.net/img/categories_v2/food/asian_', 'suffix': '.png'}, 'primary': True}], 'photos': {'count': 0, 'groups': []}}, 'referralId': 'e-0-4d322952c6cba35d32911e7a-0'}, {'reasons': {'count': 0, 'items': [{'summary': 'This spot is popular', 'type': 'general', 'reasonName': 'globalInteractionReason'}]}, 'venue': {'id': '4c3ac9db16cb2d7f0ed901a9', 'name': 'Ho-Ree Roasted Food 好味烧腊', 'location': {'address': '#01-84 628 Ang Mo Kio Food Centre', 'crossStreet': 'Blk 628 Ang Mo Kio Ave 4', 'lat': 1.3811602378001138, 'lng': 103.84097655413296, 'labeledLatLngs': [{'label': 'display', 'lat': 1.3811602378001138, 'lng': 103.84097655413296}], 'distance': 446, 'postalCode': '560628', 'cc': 'SG', 'city': 'Singapore', 'country': 'Singapore', 'formattedAddress': ['#01-84 628 Ang Mo Kio Food Centre (Blk 628 Ang Mo Kio Ave 4)', '560628', 'Singapore']}, 'categories': [{'id': '4bf58dd8d48988d145941735', 'name': 'Chinese Restaurant', 'pluralName': 'Chinese Restaurants', 'shortName': 'Chinese', 'icon': {'prefix': 'https://ss3.4sqi.net/img/categories_v2/food/asian_', 'suffix': '.png'}, 'primary': True}], 'photos': {'count': 0, 'groups': []}}, 'referralId': 'e-0-4c3ac9db16cb2d7f0ed901a9-1'}, {'reasons': {'count': 0, 'items': [{'summary': 'This spot is popular', 'type': 'general', 'reasonName': 'globalInteractionReason'}]}, 'venue': {'id': '4d4f753ddcce224bc42ace1b', 'name': 'Imperial Court', 'location': {'address': '#03-01, The Grassroots Club', 'crossStreet': '190 Ang Mo Kio Avenue 8', 'lat': 1.380910532955407, 'lng': 103.84633624374823, 'labeledLatLngs': [{'label': 'display', 'lat': 1.380910532955407, 'lng': 103.84633624374823}], 'distance': 184, 'postalCode': '569773', 'cc': 'SG', 'city': 'Singapore', 'country': 'Singapore', 'formattedAddress': ['#03-01, The Grassroots Club (190 Ang Mo Kio Avenue 8)', '569773', 'Singapore']}, 'categories': [{'id': '4bf58dd8d48988d145941735', 'name': 'Chinese Restaurant', 'pluralName': 'Chinese Restaurants', 'shortName': 'Chinese', 'icon': {'prefix': 'https://ss3.4sqi.net/img/categories_v2/food/asian_', 'suffix': '.png'}, 'primary': True}], 'photos': {'count': 0, 'groups': []}}, 'referralId': 'e-0-4d4f753ddcce224bc42ace1b-2'}, {'reasons': {'count': 0, 'items': [{'summary': 'This spot is popular', 'type': 'general', 'reasonName': 'globalInteractionReason'}]}, 'venue': {'id': '4c6c655ae6b7b1f727f3a68e', 'name': 'Yit Thong Mushroom Minced Meat Noodle', 'location': {'address': 'Block 628', 'crossStreet': 'Ang mo kio st 61', 'lat': 1.381223, 'lng': 103.840948, 'labeledLatLngs': [{'label': 'display', 'lat': 1.381223, 'lng': 103.840948}], 'distance': 448, 'cc': 'SG', 'country': 'Singapore', 'formattedAddress': ['Block 628 (Ang mo kio st 61)', 'Singapore']}, 'categories': [{'id': '4bf58dd8d48988d145941735', 'name': 'Chinese Restaurant', 'pluralName': 'Chinese Restaurants', 'shortName': 'Chinese', 'icon': {'prefix': 'https://ss3.4sqi.net/img/categories_v2/food/asian_', 'suffix': '.png'}, 'primary': True}], 'photos': {'count': 0, 'groups': []}}, 'referralId': 'e-0-4c6c655ae6b7b1f727f3a68e-3'}, {'reasons': {'count': 0, 'items': [{'summary': 'This spot is popular', 'type': 'general', 'reasonName': 'globalInteractionReason'}]}, 'venue': {'id': '507fee84e4b0f454e7b79fd3', 'name': 'Ho Hup Fried Kway Teow', 'location': {'address': '628 Ang Mo Kio', 'lat': 1.3809283110126447, 'lng': 103.84066079741474, 'labeledLatLngs': [{'label': 'display', 'lat': 1.3809283110126447, 'lng': 103.84066079741474}], 'distance': 485, 'cc': 'SG', 'country': 'Singapore', 'formattedAddress': ['628 Ang Mo Kio', 'Singapore']}, 'categories': [{'id': '4bf58dd8d48988d145941735', 'name': 'Chinese Restaurant', 'pluralName': 'Chinese Restaurants', 'shortName': 'Chinese', 'icon': {'prefix': 'https://ss3.4sqi.net/img/categories_v2/food/asian_', 'suffix': '.png'}, 'primary': True}], 'photos': {'count': 0, 'groups': []}}, 'referralId': 'e-0-507fee84e4b0f454e7b79fd3-4'}, {'reasons': {'count': 0, 'items': [{'summary': 'This spot is popular', 'type': 'general', 'reasonName': 'globalInteractionReason'}]}, 'venue': {'id': '4ef55b5fb8f77e0f98de8ab9', 'name': 'Seng Huat Noodle House (成发面家）', 'location': {'address': '628 Ang Mo Kio Food Centre #01-61', 'crossStreet': 'Blk 628 Ang Mo Kio Ave 4', 'lat': 1.381171847076331, 'lng': 103.84092300699886, 'labeledLatLngs': [{'label': 'display', 'lat': 1.381171847076331, 'lng': 103.84092300699886}], 'distance': 451, 'cc': 'SG', 'city': 'Singapore', 'country': 'Singapore', 'formattedAddress': ['628 Ang Mo Kio Food Centre #01-61 (Blk 628 Ang Mo Kio Ave 4)', 'Singapore']}, 'categories': [{'id': '4bf58dd8d48988d145941735', 'name': 'Chinese Restaurant', 'pluralName': 'Chinese Restaurants', 'shortName': 'Chinese', 'icon': {'prefix': 'https://ss3.4sqi.net/img/categories_v2/food/asian_', 'suffix': '.png'}, 'primary': True}], 'photos': {'count': 0, 'groups': []}}, 'referralId': 'e-0-4ef55b5fb8f77e0f98de8ab9-5'}, {'reasons': {'count': 0, 'items': [{'summary': 'This spot is popular', 'type': 'general', 'reasonName': 'globalInteractionReason'}]}, 'venue': {'id': '4c759e8cdb52b1f7dc4e79dc', 'name': 'Nonya Curry Mix Veg Rice', 'location': {'address': '628 Ang Mo Kio Street 61 #01-58', 'lat': 1.381058652403204, 'lng': 103.84091555502386, 'labeledLatLngs': [{'label': 'display', 'lat': 1.381058652403204, 'lng': 103.84091555502386}], 'distance': 454, 'cc': 'SG', 'neighborhood': 'Ang Mo Kio', 'city': 'Singapore', 'country': 'Singapore', 'formattedAddress': ['628 Ang Mo Kio Street 61 #01-58', 'Singapore']}, 'categories': [{'id': '52af3a903cf9994f4e043bee', 'name': 'Chinese Breakfast Place', 'pluralName': 'Chinese Breakfast Places', 'shortName': 'Chinese Breakfast', 'icon': {'prefix': 'https://ss3.4sqi.net/img/categories_v2/food/asian_', 'suffix': '.png'}, 'primary': True}], 'photos': {'count': 0, 'groups': []}}, 'referralId': 'e-0-4c759e8cdb52b1f7dc4e79dc-6'}]"
Yio Chu Kang East,2240.478,1.3817905,103.8449359,"https://api.foursquare.com/v2/venues/explore?&client_id=34FUW3QDQCJ1CAO5MNVIJKAJYPROU1WCAGADR0XPIW4PCIIY&client_secret=WJXWNURD13KVAKNQTHJYZDMRFHE4VSESQMKQWN0XGHKTP5MZ&v=20180604&ll=1.3817905,103.8449359&radius=500&categoryId=4bf58dd8d48988d145941735&limit=200","[{'reasons': {'count': 0, 'items': [{'summary': 'This spot is popular', 'type': 'general', 'reasonName': 'globalInteractionReason'}]}, 'venue': {'id': '4d322952c6cba35d32911e7a', 'name': '香记粥 (Xiang Ji Porridge)', 'location': {'address': '01-81 Blk 628 Ang Mo Kio Avenue 4', 'crossStreet': 'Ang Mo Kio Street 61', 'lat': 1.381202, 'lng': 103.840782, 'labeledLatLngs': [{'label': 'display', 'lat': 1.381202, 'lng': 103.840782}], 'distance': 466, 'postalCode': '560628', 'cc': 'SG', 'city': 'Singapore', 'country': 'Singapore', 'formattedAddress': ['01-81 Blk 628 Ang Mo Kio Avenue 4 (Ang Mo Kio Street 61)', '560628', 'Singapore']}, 'categories': [{'id': '4bf58dd8d48988d145941735', 'name': 'Chinese Restaurant', 'pluralName': 'Chinese Restaurants', 'shortName': 'Chinese', 'icon': {'prefix': 'https://ss3.4sqi.net/img/categories_v2/food/asian_', 'suffix': '.png'}, 'primary': True}], 'photos': {'count': 0, 'groups': []}}, 'referralId': 'e-0-4d322952c6cba35d32911e7a-0'}, {'reasons': {'count': 0, 'items': [{'summary': 'This spot is popular', 'type': 'general', 'reasonName': 'globalInteractionReason'}]}, 'venue': {'id': '4c3ac9db16cb2d7f0ed901a9', 'name': 'Ho-Ree Roasted Food 好味烧腊', 'location': {'address': '#01-84 628 Ang Mo Kio Food Centre', 'crossStreet': 'Blk 628 Ang Mo Kio Ave 4', 'lat': 1.3811602378001138, 'lng': 103.84097655413296, 'labeledLatLngs': [{'label': 'display', 'lat': 1.3811602378001138, 'lng': 103.84097655413296}], 'distance': 446, 'postalCode': '560628', 'cc': 'SG', 'city': 'Singapore', 'country': 'Singapore', 'formattedAddress': ['#01-84 628 Ang Mo Kio Food Centre (Blk 628 Ang Mo Kio Ave 4)', '560628', 'Singapore']}, 'categories': [{'id': '4bf58dd8d48988d145941735', 'name': 'Chinese Restaurant', 'pluralName': 'Chinese Restaurants', 'shortName': 'Chinese', 'icon': {'prefix': 'https://ss3.4sqi.net/img/categories_v2/food/asian_', 'suffix': '.png'}, 'primary': True}], 'photos': {'count': 0, 'groups': []}}, 'referralId': 'e-0-4c3ac9db16cb2d7f0ed901a9-1'}, {'reasons': {'count': 0, 'items': [{'summary': 'This spot is popular', 'type': 'general', 'reasonName': 'globalInteractionReason'}]}, 'venue': {'id': '4d4f753ddcce224bc42ace1b', 'name': 'Imperial Court', 'location': {'address': '#03-01, The Grassroots Club', 'crossStreet': '190 Ang Mo Kio Avenue 8', 'lat': 1.380910532955407, 'lng': 103.84633624374823, 'labeledLatLngs': [{'label': 'display', 'lat': 1.380910532955407, 'lng': 103.84633624374823}], 'distance': 184, 'postalCode': '569773', 'cc': 'SG', 'city': 'Singapore', 'country': 'Singapore', 'formattedAddress': ['#03-01, The Grassroots Club (190 Ang Mo Kio Avenue 8)', '569773', 'Singapore']}, 'categories': [{'id': '4bf58dd8d48988d145941735', 'name': 'Chinese Restaurant', 'pluralName': 'Chinese Restaurants', 'shortName': 'Chinese', 'icon': {'prefix': 'https://ss3.4sqi.net/img/categories_v2/food/asian_', 'suffix': '.png'}, 'primary': True}], 'photos': {'count': 0, 'groups': []}}, 'referralId': 'e-0-4d4f753ddcce224bc42ace1b-2'}, {'reasons': {'count': 0, 'items': [{'summary': 'This spot is popular', 'type': 'general', 'reasonName': 'globalInteractionReason'}]}, 'venue': {'id': '4c6c655ae6b7b1f727f3a68e', 'name': 'Yit Thong Mushroom Minced Meat Noodle', 'location': {'address': 'Block 628', 'crossStreet': 'Ang mo kio st 61', 'lat': 1.381223, 'lng': 103.840948, 'labeledLatLngs': [{'label': 'display', 'lat': 1.381223, 'lng': 103.840948}], 'distance': 448, 'cc': 'SG', 'country': 'Singapore', 'formattedAddress': ['Block 628 (Ang mo kio st 61)', 'Singapore']}, 'categories': [{'id': '4bf58dd8d48988d145941735', 'name': 'Chinese Restaurant', 'pluralName': 'Chinese Restaurants', 'shortName': 'Chinese', 'icon': {'prefix': 'https://ss3.4sqi.net/img/categories_v2/food/asian_', 'suffix': '.png'}, 'primary': True}], 'photos': {'count': 0, 'groups': []}}, 'referralId': 'e-0-4c6c655ae6b7b1f727f3a68e-3'}, {'reasons': {'count': 0, 'items': [{'summary': 'This spot is popular', 'type': 'general', 'reasonName': 'globalInteractionReason'}]}, 'venue': {'id': '507fee84e4b0f454e7b79fd3', 'name': 'Ho Hup Fried Kway Teow', 'location': {'address': '628 Ang Mo Kio', 'lat': 1.3809283110126447, 'lng': 103.84066079741474, 'labeledLatLngs': [{'label': 'display', 'lat': 1.3809283110126447, 'lng': 103.84066079741474}], 'distance': 485, 'cc': 'SG', 'country': 'Singapore', 'formattedAddress': ['628 Ang Mo Kio', 'Singapore']}, 'categories': [{'id': '4bf58dd8d48988d145941735', 'name': 'Chinese Restaurant', 'pluralName': 'Chinese Restaurants', 'shortName': 'Chinese', 'icon': {'prefix': 'https://ss3.4sqi.net/img/categories_v2/food/asian_', 'suffix': '.png'}, 'primary': True}], 'photos': {'count': 0, 'groups': []}}, 'referralId': 'e-0-507fee84e4b0f454e7b79fd3-4'}, {'reasons': {'count': 0, 'items': [{'summary': 'This spot is popular', 'type': 'general', 'reasonName': 'globalInteractionReason'}]}, 'venue': {'id': '4ef55b5fb8f77e0f98de8ab9', 'name': 'Seng Huat Noodle House (成发面家）', 'location': {'address': '628 Ang Mo Kio Food Centre #01-61', 'crossStreet': 'Blk 628 Ang Mo Kio Ave 4', 'lat': 1.381171847076331, 'lng': 103.84092300699886, 'labeledLatLngs': [{'label': 'display', 'lat': 1.381171847076331, 'lng': 103.84092300699886}], 'distance': 451, 'cc': 'SG', 'city': 'Singapore', 'country': 'Singapore', 'formattedAddress': ['628 Ang Mo Kio Food Centre #01-61 (Blk 628 Ang Mo Kio Ave 4)', 'Singapore']}, 'categories': [{'id': '4bf58dd8d48988d145941735', 'name': 'Chinese Restaurant', 'pluralName': 'Chinese Restaurants', 'shortName': 'Chinese', 'icon': {'prefix': 'https://ss3.4sqi.net/img/categories_v2/food/asian_', 'suffix': '.png'}, 'primary': True}], 'photos': {'count': 0, 'groups': []}}, 'referralId': 'e-0-4ef55b5fb8f77e0f98de8ab9-5'}, {'reasons': {'count': 0, 'items': [{'summary': 'This spot is popular', 'type': 'general', 'reasonName': 'globalInteractionReason'}]}, 'venue': {'id': '4c759e8cdb52b1f7dc4e79dc', 'name': 'Nonya Curry Mix Veg Rice', 'location': {'address': '628 Ang Mo Kio Street 61 #01-58', 'lat': 1.381058652403204, 'lng': 103.84091555502386, 'labeledLatLngs': [{'label': 'display', 'lat': 1.381058652403204, 'lng': 103.84091555502386}], 'distance': 454, 'cc': 'SG', 'neighborhood': 'Ang Mo Kio', 'city': 'Singapore', 'country': 'Singapore', 'formattedAddress': ['628 Ang Mo Kio Street 61 #01-58', 'Singapore']}, 'categories': [{'id': '52af3a903cf9994f4e043bee', 'name': 'Chinese Breakfast Place', 'pluralName': 'Chinese Breakfast Places', 'shortName': 'Chinese Breakfast', 'icon': {'prefix': 'https://ss3.4sqi.net/img/categories_v2/food/asian_', 'suffix': '.png'}, 'primary': True}], 'photos': {'count': 0, 'groups': []}}, 'referralId': 'e-0-4c759e8cdb52b1f7dc4e79dc-6'}]"
Yio Chu Kang West,28859.9426,1.3817905,103.8449359,"https://api.foursquare.com/v2/venues/explore?&client_id=34FUW3QDQCJ1CAO5MNVIJKAJYPROU1WCAGADR0XPIW4PCIIY&client_secret=WJXWNURD13KVAKNQTHJYZDMRFHE4VSESQMKQWN0XGHKTP5MZ&v=20180604&ll=1.3817905,103.8449359&radius=500&categoryId=4bf58dd8d48988d145941735&limit=200","[{'reasons': {'count': 0, 'items': [{'summary': 'This spot is popular', 'type': 'general', 'reasonName': 'globalInteractionReason'}]}, 'venue': {'id': '4d322952c6cba35d32911e7a', 'name': '香记粥 (Xiang Ji Porridge)', 'location': {'address': '01-81 Blk 628 Ang Mo Kio Avenue 4', 'crossStreet': 'Ang Mo Kio Street 61', 'lat': 1.381202, 'lng': 103.840782, 'labeledLatLngs': [{'label': 'display', 'lat': 1.381202, 'lng': 103.840782}], 'distance': 466, 'postalCode': '560628', 'cc': 'SG', 'city': 'Singapore', 'country': 'Singapore', 'formattedAddress': ['01-81 Blk 628 Ang Mo Kio Avenue 4 (Ang Mo Kio Street 61)', '560628', 'Singapore']}, 'categories': [{'id': '4bf58dd8d48988d145941735', 'name': 'Chinese Restaurant', 'pluralName': 'Chinese Restaurants', 'shortName': 'Chinese', 'icon': {'prefix': 'https://ss3.4sqi.net/img/categories_v2/food/asian_', 'suffix': '.png'}, 'primary': True}], 'photos': {'count': 0, 'groups': []}}, 'referralId': 'e-0-4d322952c6cba35d32911e7a-0'}, {'reasons': {'count': 0, 'items': [{'summary': 'This spot is popular', 'type': 'general', 'reasonName': 'globalInteractionReason'}]}, 'venue': {'id': '4c3ac9db16cb2d7f0ed901a9', 'name': 'Ho-Ree Roasted Food 好味烧腊', 'location': {'address': '#01-84 628 Ang Mo Kio Food Centre', 'crossStreet': 'Blk 628 Ang Mo Kio Ave 4', 'lat': 1.3811602378001138, 'lng': 103.84097655413296, 'labeledLatLngs': [{'label': 'display', 'lat': 1.3811602378001138, 'lng': 103.84097655413296}], 'distance': 446, 'postalCode': '560628', 'cc': 'SG', 'city': 'Singapore', 'country': 'Singapore', 'formattedAddress': ['#01-84 628 Ang Mo Kio Food Centre (Blk 628 Ang Mo Kio Ave 4)', '560628', 'Singapore']}, 'categories': [{'id': '4bf58dd8d48988d145941735', 'name': 'Chinese Restaurant', 'pluralName': 'Chinese Restaurants', 'shortName': 'Chinese', 'icon': {'prefix': 'https://ss3.4sqi.net/img/categories_v2/food/asian_', 'suffix': '.png'}, 'primary': True}], 'photos': {'count': 0, 'groups': []}}, 'referralId': 'e-0-4c3ac9db16cb2d7f0ed901a9-1'}, {'reasons': {'count': 0, 'items': [{'summary': 'This spot is popular', 'type': 'general', 'reasonName': 'globalInteractionReason'}]}, 'venue': {'id': '4d4f753ddcce224bc42ace1b', 'name': 'Imperial Court', 'location': {'address': '#03-01, The Grassroots Club', 'crossStreet': '190 Ang Mo Kio Avenue 8', 'lat': 1.380910532955407, 'lng': 103.84633624374823, 'labeledLatLngs': [{'label': 'display', 'lat': 1.380910532955407, 'lng': 103.84633624374823}], 'distance': 184, 'postalCode': '569773', 'cc': 'SG', 'city': 'Singapore', 'country': 'Singapore', 'formattedAddress': ['#03-01, The Grassroots Club (190 Ang Mo Kio Avenue 8)', '569773', 'Singapore']}, 'categories': [{'id': '4bf58dd8d48988d145941735', 'name': 'Chinese Restaurant', 'pluralName': 'Chinese Restaurants', 'shortName': 'Chinese', 'icon': {'prefix': 'https://ss3.4sqi.net/img/categories_v2/food/asian_', 'suffix': '.png'}, 'primary': True}], 'photos': {'count': 0, 'groups': []}}, 'referralId': 'e-0-4d4f753ddcce224bc42ace1b-2'}, {'reasons': {'count': 0, 'items': [{'summary': 'This spot is popular', 'type': 'general', 'reasonName': 'globalInteractionReason'}]}, 'venue': {'id': '4c6c655ae6b7b1f727f3a68e', 'name': 'Yit Thong Mushroom Minced Meat Noodle', 'location': {'address': 'Block 628', 'crossStreet': 'Ang mo kio st 61', 'lat': 1.381223, 'lng': 103.840948, 'labeledLatLngs': [{'label': 'display', 'lat': 1.381223, 'lng': 103.840948}], 'distance': 448, 'cc': 'SG', 'country': 'Singapore', 'formattedAddress': ['Block 628 (Ang mo kio st 61)', 'Singapore']}, 'categories': [{'id': '4bf58dd8d48988d145941735', 'name': 'Chinese Restaurant', 'pluralName': 'Chinese Restaurants', 'shortName': 'Chinese', 'icon': {'prefix': 'https://ss3.4sqi.net/img/categories_v2/food/asian_', 'suffix': '.png'}, 'primary': True}], 'photos': {'count': 0, 'groups': []}}, 'referralId': 'e-0-4c6c655ae6b7b1f727f3a68e-3'}, {'reasons': {'count': 0, 'items': [{'summary': 'This spot is popular', 'type': 'general', 'reasonName': 'globalInteractionReason'}]}, 'venue': {'id': '507fee84e4b0f454e7b79fd3', 'name': 'Ho Hup Fried Kway Teow', 'location': {'address': '628 Ang Mo Kio', 'lat': 1.3809283110126447, 'lng': 103.84066079741474, 'labeledLatLngs': [{'label': 'display', 'lat': 1.3809283110126447, 'lng': 103.84066079741474}], 'distance': 485, 'cc': 'SG', 'country': 'Singapore', 'formattedAddress': ['628 Ang Mo Kio', 'Singapore']}, 'categories': [{'id': '4bf58dd8d48988d145941735', 'name': 'Chinese Restaurant', 'pluralName': 'Chinese Restaurants', 'shortName': 'Chinese', 'icon': {'prefix': 'https://ss3.4sqi.net/img/categories_v2/food/asian_', 'suffix': '.png'}, 'primary': True}], 'photos': {'count': 0, 'groups': []}}, 'referralId': 'e-0-507fee84e4b0f454e7b79fd3-4'}, {'reasons': {'count': 0, 'items': [{'summary': 'This spot is popular', 'type': 'general', 'reasonName': 'globalInteractionReason'}]}, 'venue': {'id': '4ef55b5fb8f77e0f98de8ab9', 'name': 'Seng Huat Noodle House (成发面家）', 'location': {'address': '628 Ang Mo Kio Food Centre #01-61', 'crossStreet': 'Blk 628 Ang Mo Kio Ave 4', 'lat': 1.381171847076331, 'lng': 103.84092300699886, 'labeledLatLngs': [{'label': 'display', 'lat': 1.381171847076331, 'lng': 103.84092300699886}], 'distance': 451, 'cc': 'SG', 'city': 'Singapore', 'country': 'Singapore', 'formattedAddress': ['628 Ang Mo Kio Food Centre #01-61 (Blk 628 Ang Mo Kio Ave 4)', 'Singapore']}, 'categories': [{'id': '4bf58dd8d48988d145941735', 'name': 'Chinese Restaurant', 'pluralName': 'Chinese Restaurants', 'shortName': 'Chinese', 'icon': {'prefix': 'https://ss3.4sqi.net/img/categories_v2/food/asian_', 'suffix': '.png'}, 'primary': True}], 'photos': {'count': 0, 'groups': []}}, 'referralId': 'e-0-4ef55b5fb8f77e0f98de8ab9-5'}, {'reasons': {'count': 0, 'items': [{'summary': 'This spot is popular', 'type': 'general', 'reasonName': 'globalInteractionReason'}]}, 'venue': {'id': '4c759e8cdb52b1f7dc4e79dc', 'name': 'Nonya Curry Mix Veg Rice', 'location': {'address': '628 Ang Mo Kio Street 61 #01-58', 'lat': 1.381058652403204, 'lng': 103.84091555502386, 'labeledLatLngs': [{'label': 'display', 'lat': 1.381058652403204, 'lng': 103.84091555502386}], 'distance': 454, 'cc': 'SG', 'neighborhood': 'Ang Mo Kio', 'city': 'Singapore', 'country': 'Singapore', 'formattedAddress': ['628 Ang Mo Kio Street 61 #01-58', 'Singapore']}, 'categories': [{'id': '52af3a903cf9994f4e043bee', 'name': 'Chinese Breakfast Place', 'pluralName': 'Chinese Breakfast Places', 'shortName': 'Chinese Breakfast', 'icon': {'prefix': 'https://ss3.4sqi.net/img/categories_v2/food/asian_', 'suffix': '.png'}, 'primary': True}], 'photos': {'count': 0, 'groups': []}}, 'referralId': 'e-0-4c759e8cdb52b1f7dc4e79dc-6'}]"
Bayshore,2954.0048,1.3128118,103.93903292138398,"https://api.foursquare.com/v2/venues/explore?&client_id=34FUW3QDQCJ1CAO5MNVIJKAJYPROU1WCAGADR0XPIW4PCIIY&client_secret=WJXWNURD13KVAKNQTHJYZDMRFHE4VSESQMKQWN0XGHKTP5MZ&v=20180604&ll=1.3128118,103.93903292138398&radius=500&categoryId=4bf58dd8d48988d145941735&limit=200","[{'reasons': {'count': 0, 'items': [{'summary': 'This spot is popular', 'type': 'general', 'reasonName': 'globalInteractionReason'}]}, 'venue': {'id': '4cd3d58b558a37045a68c3a6', 'name': 'Hua Yu Wee Restaurant', 'location': {'address': '462 Upper East Coast Rd', 'lat': 1.3145719561403277, 'lng': 103.94158949567372, 'labeledLatLngs': [{'label': 'display', 'lat': 1.3145719561403277, 'lng': 103.94158949567372}], 'distance': 345, 'postalCode': '466508', 'cc': 'SG', 'neighborhood': 'Bedok', 'city': 'Singapore', 'country': 'Singapore', 'formattedAddress': ['462 Upper East Coast Rd', '466508', 'Singapore']}, 'categories': [{'id': '4bf58dd8d48988d145941735', 'name': 'Chinese Restaurant', 'pluralName': 'Chinese Restaurants', 'shortName': 'Chinese', 'icon': {'prefix': 'https://ss3.4sqi.net/img/categories_v2/food/asian_', 'suffix': '.png'}, 'primary': True}], 'photos': {'count': 0, 'groups': []}}, 'referralId': 'e-0-4cd3d58b558a37045a68c3a6-0'}, {'reasons': {'count': 0, 'items': [{'summary': 'This spot is popular', 'type': 'general', 'reasonName': 'globalInteractionReason'}]}, 'venue': {'id': '4bfbaa0bd0382d7f23e4c90a', 'name': 'Dolphina Clubhouse', 'location': {'address': '56 Bayshore Rd.', 'crossStreet': 'Bayshore Park', 'lat': 1.3110265464151516, 'lng': 103.93757550853331, 'labeledLatLngs': [{'label': 'display', 'lat': 1.3110265464151516, 'lng': 103.93757550853331}], 'distance': 256, 'postalCode': '469980', 'cc': 'SG', 'city': 'Singapore', 'country': 'Singapore', 'formattedAddress': ['56 Bayshore Rd. (Bayshore Park)', '469980', 'Singapore']}, 'categories': [{'id': '4bf58dd8d48988d142941735', 'name': 'Asian Restaurant', 'pluralName': 'Asian Restaurants', 'shortName': 'Asian', 'icon': {'prefix': 'https://ss3.4sqi.net/img/categories_v2/food/asian_', 'suffix': '.png'}, 'primary': True}], 'photos': {'count': 0, 'groups': []}}, 'referralId': 'e-0-4bfbaa0bd0382d7f23e4c90a-1'}, {'reasons': {'count': 0, 'items': [{'summary': 'This spot is popular', 'type': 'general', 'reasonName': 'globalInteractionReason'}]}, 'venue': {'id': '4efda7d5490182a1a5866056', 'name': 'Bayshore park Chinese Seafood', 'location': {'lat': 1.3114214955747259, 'lng': 103.93620563669066, 'labeledLatLngs': [{'label': 'display', 'lat': 1.3114214955747259, 'lng': 103.93620563669066}], 'distance': 350, 'cc': 'SG', 'country': 'Singapore', 'formattedAddress': ['Singapore']}, 'categories': [{'id': '4bf58dd8d48988d145941735', 'name': 'Chinese Restaurant', 'pluralName': 'Chinese Restaurants', 'shortName': 'Chinese', 'icon': {'prefix': 'https://ss3.4sqi.net/img/categories_v2/food/asian_', 'suffix': '.png'}, 'primary': True}], 'photos': {'count': 0, 'groups': []}}, 'referralId': 'e-0-4efda7d5490182a1a5866056-2'}, {'reasons': {'count': 0, 'items': [{'summary': 'This spot is popular', 'type': 'general', 'reasonName': 'globalInteractionReason'}]}, 'venue': {'id': '5c0fa454fd16bb0039bdc524', 'name': 'Lucky House Cantonese Private Kitchen', 'location': {'address': '267 Upper East Coast Road', 'lat': 1.314483, 'lng': 103.935228, 'labeledLatLngs': [{'label': 'display', 'lat': 1.314483, 'lng': 103.935228}], 'distance': 462, 'postalCode': '466413', 'cc': 'SG', 'neighborhood': 'Bedok', 'city': 'Bedok New Town', 'state': 'Singapore', 'country': 'Singapore', 'formattedAddress': ['267 Upper East Coast Road', '466413', 'Singapore']}, 'categories': [{'id': '4bf58dd8d48988d145941735', 'name': 'Chinese Restaurant', 'pluralName': 'Chinese Restaurants', 'shortName': 'Chinese', 'icon': {'prefix': 'https://ss3.4sqi.net/img/categories_v2/food/asian_', 'suffix': '.png'}, 'primary': True}], 'photos': {'count': 0, 'groups': []}}, 'referralId': 'e-0-5c0fa454fd16bb0039bdc524-3'}]"
Bedok North,25551.8436,1.3344768,103.91828105834637,"https://api.foursquare.com/v2/venues/explore?&client_id=34FUW3QDQCJ1CAO5MNVIJKAJYPROU1WCAGADR0XPIW4PCIIY&client_secret=WJXWNURD13KVAKNQTHJYZDMRFHE4VSESQMKQWN0XGHKTP5MZ&v=20180604&ll=1.3344768,103.91828105834637&radius=500&categoryId=4bf58dd8d48988d145941735&limit=200","[{'reasons': {'count': 0, 'items': [{'summary': 'This spot is popular', 'type': 'general', 'reasonName': 'globalInteractionReason'}]}, 'venue': {'id': '4d3c1103457cb60cb070eca4', 'name': '兴法海鲜馆', 'location': {'address': 'Blk 631', 'lat': 1.3335768926725924, 'lng': 103.91576132485353, 'labeledLatLngs': [{'label': 'display', 'lat': 1.3335768926725924, 'lng': 103.91576132485353}], 'distance': 297, 'cc': 'SG', 'city': 'Singapore', 'country': 'Singapore', 'formattedAddress': ['Blk 631', 'Singapore']}, 'categories': [{'id': '4bf58dd8d48988d145941735', 'name': 'Chinese Restaurant', 'pluralName': 'Chinese Restaurants', 'shortName': 'Chinese', 'icon': {'prefix': 'https://ss3.4sqi.net/img/categories_v2/food/asian_', 'suffix': '.png'}, 'primary': True}], 'photos': {'count': 0, 'groups': []}}, 'referralId': 'e-0-4d3c1103457cb60cb070eca4-0'}, {'reasons': {'count': 0, 'items': [{'summary': 'This spot is popular', 'type': 'general', 'reasonName': 'globalInteractionReason'}]}, 'venue': {'id': '4b57bd1df964a520b93e28e3', 'name': 'Bedok Reservoir Road Market & Food Centre', 'location': {'address': '630 Bedok Reservoir Road', 'lat': 1.3331353841113895, 'lng': 103.9142200945008, 'labeledLatLngs': [{'label': 'display', 'lat': 1.3331353841113895, 'lng': 103.9142200945008}], 'distance': 475, 'postalCode': '470630', 'cc': 'SG', 'city': 'Singapore', 'country': 'Singapore', 'formattedAddress': ['630 Bedok Reservoir Road', '470630', 'Singapore']}, 'categories': [{'id': '4bf58dd8d48988d145941735', 'name': 'Chinese Restaurant', 'pluralName': 'Chinese Restaurants', 'shortName': 'Chinese', 'icon': {'prefix': 'https://ss3.4sqi.net/img/categories_v2/food/asian_', 'suffix': '.png'}, 'primary': True}], 'photos': {'count': 0, 'groups': []}}, 'referralId': 'e-0-4b57bd1df964a520b93e28e3-1'}, {'reasons': {'count': 0, 'items': [{'summary': 'This spot is popular', 'type': 'general', 'reasonName': 'globalInteractionReason'}]}, 'venue': {'id': '4c43e71e74ffc928c5e574cc', 'name': 'Xiang Ji Chicken Rice', 'location': {'address': 'Bedok Reservoir Market #01-26', 'lat': 1.333137823209798, 'lng': 103.91411596381849, 'labeledLatLngs': [{'label': 'display', 'lat': 1.333137823209798, 'lng': 103.91411596381849}], 'distance': 486, 'cc': 'SG', 'neighborhood': 'Bedok', 'country': 'Singapore', 'formattedAddress': ['Bedok Reservoir Market #01-26', 'Singapore']}, 'categories': [{'id': '4bf58dd8d48988d145941735', 'name': 'Chinese Restaurant', 'pluralName': 'Chinese Restaurants', 'shortName': 'Chinese', 'icon': {'prefix': 'https://ss3.4sqi.net/img/categories_v2/food/asian_', 'suffix': '.png'}, 'primary': True}], 'photos': {'count': 0, 'groups': []}}, 'referralId': 'e-0-4c43e71e74ffc928c5e574cc-2'}]"
Bedok Reservoir,10704.3793,1.3425058,103.92522980731216,"https://api.foursquare.com/v2/venues/explore?&client_id=34FUW3QDQCJ1CAO5MNVIJKAJYPROU1WCAGADR0XPIW4PCIIY&client_secret=WJXWNURD13KVAKNQTHJYZDMRFHE4VSESQMKQWN0XGHKTP5MZ&v=20180604&ll=1.3425058,103.92522980731216&radius=500&categoryId=4bf58dd8d48988d145941735&limit=200",[]
Bedok South,15576.8333,1.3172941,103.94968140811524,"https://api.foursquare.com/v2/venues/explore?&client_id=34FUW3QDQCJ1CAO5MNVIJKAJYPROU1WCAGADR0XPIW4PCIIY&client_secret=WJXWNURD13KVAKNQTHJYZDMRFHE4VSESQMKQWN0XGHKTP5MZ&v=20180604&ll=1.3172941,103.94968140811524&radius=500&categoryId=4bf58dd8d48988d145941735&limit=200","[{'reasons': {'count': 0, 'items': [{'summary': 'This spot is popular', 'type': 'general', 'reasonName': 'globalInteractionReason'}]}, 'venue': {'id': '52d11fba498e70ed7ed2b9ef', 'name': 'hong king street kitchen', 'location': {'address': '20 Eastwood Ctr', 'lat': 1.3188214302062988, 'lng': 103.95357513427734, 'labeledLatLngs': [{'label': 'display', 'lat': 1.3188214302062988, 'lng': 103.95357513427734}], 'distance': 465, 'cc': 'SG', 'city': 'Singapore', 'country': 'Singapore', 'formattedAddress': ['20 Eastwood Ctr', 'Singapore']}, 'categories': [{'id': '4bf58dd8d48988d145941735', 'name': 'Chinese Restaurant', 'pluralName': 'Chinese Restaurants', 'shortName': 'Chinese', 'icon': {'prefix': 'https://ss3.4sqi.net/img/categories_v2/food/asian_', 'suffix': '.png'}, 'primary': True}], 'photos': {'count': 0, 'groups': []}}, 'referralId': 'e-0-52d11fba498e70ed7ed2b9ef-0'}]"
Frankel,8026.9037,1.3191482,103.9142645,"https://api.foursquare.com/v2/venues/explore?&client_id=34FUW3QDQCJ1CAO5MNVIJKAJYPROU1WCAGADR0XPIW4PCIIY&client_secret=WJXWNURD13KVAKNQTHJYZDMRFHE4VSESQMKQWN0XGHKTP5MZ&v=20180604&ll=1.3191482,103.9142645&radius=500&categoryId=4bf58dd8d48988d145941735&limit=200","[{'reasons': {'count': 0, 'items': [{'summary': 'This spot is popular', 'type': 'general', 'reasonName': 'globalInteractionReason'}]}, 'venue': {'id': '4bacaab4f964a52012023be3', 'name': 'Seng Kee Black Herbal Chicken Soup 成基黑鸡补品 (Seng Kee Black Chicken Herbal Soup)', 'location': {'address': '467 Changi Rd', 'lat': 1.3193133643456825, 'lng': 103.91320385372667, 'labeledLatLngs': [{'label': 'display', 'lat': 1.3193133643456825, 'lng': 103.91320385372667}], 'distance': 119, 'postalCode': '419887', 'cc': 'SG', 'city': 'Singapore', 'country': 'Singapore', 'formattedAddress': ['467 Changi Rd', '419887', 'Singapore']}, 'categories': [{'id': '4bf58dd8d48988d145941735', 'name': 'Chinese Restaurant', 'pluralName': 'Chinese Restaurants', 'shortName': 'Chinese', 'icon': {'prefix': 'https://ss3.4sqi.net/img/categories_v2/food/asian_', 'suffix': '.png'}, 'primary': True}], 'photos': {'count': 0, 'groups': []}}, 'referralId': 'e-0-4bacaab4f964a52012023be3-0'}, {'reasons': {'count': 0, 'items': [{'summary': 'This spot is popular', 'type': 'general', 'reasonName': 'globalInteractionReason'}]}, 'venue': {'id': '4b6e91e5f964a5206bc22ce3', 'name': ""Mak's Place"", 'location': {'address': '401 Changi Road', 'lat': 1.3188528328996425, 'lng': 103.9110140072568, 'labeledLatLngs': [{'label': 'display', 'lat': 1.3188528328996425, 'lng': 103.9110140072568}], 'distance': 363, 'postalCode': '419847', 'cc': 'SG', 'city': 'Singapore', 'country': 'Singapore', 'formattedAddress': ['401 Changi Road', '419847', 'Singapore']}, 'categories': [{'id': '4bf58dd8d48988d145941735', 'name': 'Chinese Restaurant', 'pluralName': 'Chinese Restaurants', 'shortName': 'Chinese', 'icon': {'prefix': 'https://ss3.4sqi.net/img/categories_v2/food/asian_', 'suffix': '.png'}, 'primary': True}], 'photos': {'count': 0, 'groups': []}}, 'referralId': 'e-0-4b6e91e5f964a5206bc22ce3-1'}, {'reasons': {'count': 0, 'items': [{'summary': 'This spot is popular', 'type': 'general', 'reasonName': 'globalInteractionReason'}]}, 'venue': {'id': '4dd215f28877261f70f4177c', 'name': '古早人台湾粥 Gu Zao Ren', 'location': {'address': '391A Changi Rd.', 'lat': 1.3186590758259886, 'lng': 103.91057682163742, 'labeledLatLngs': [{'label': 'display', 'lat': 1.3186590758259886, 'lng': 103.91057682163742}], 'distance': 413, 'postalCode': '417211', 'cc': 'SG', 'city': 'Singapore', 'country': 'Singapore', 'formattedAddress': ['391A Changi Rd.', '417211', 'Singapore']}, 'categories': [{'id': '4bf58dd8d48988d145941735', 'name': 'Chinese Restaurant', 'pluralName': 'Chinese Restaurants', 'shortName': 'Chinese', 'icon': {'prefix': 'https://ss3.4sqi.net/img/categories_v2/food/asian_', 'suffix': '.png'}, 'primary': True}], 'photos': {'count': 0, 'groups': []}}, 'referralId': 'e-0-4dd215f28877261f70f4177c-2'}, {'reasons': {'count': 0, 'items': [{'summary': 'This spot is popular', 'type': 'general', 'reasonName': 'globalInteractionReason'}]}, 'venue': {'id': '4ca71701b7106dcb6b4164a5', 'name': '海京楼台湾粥', 'location': {'lat': 1.319156, 'lng': 103.914092, 'labeledLatLngs': [{'label': 'display', 'lat': 1.319156, 'lng': 103.914092}], 'distance': 19, 'cc': 'SG', 'country': 'Singapore', 'formattedAddress': ['Singapore']}, 'categories': [{'id': '4bf58dd8d48988d145941735', 'name': 'Chinese Restaurant', 'pluralName': 'Chinese Restaurants', 'shortName': 'Chinese', 'icon': {'prefix': 'https://ss3.4sqi.net/img/categories_v2/food/asian_', 'suffix': '.png'}, 'primary': True}], 'photos': {'count': 0, 'groups': []}}, 'referralId': 'e-0-4ca71701b7106dcb6b4164a5-3'}, {'reasons': {'count': 0, 'items': [{'summary': 'This spot is popular', 'type': 'general', 'reasonName': 'globalInteractionReason'}]}, 'venue': {'id': '4fdc82fae4b0dd796b5b0965', 'name': 'Joy Steamboat 大家乐火锅', 'location': {'address': '494 Changi Road', 'crossStreet': 'Changi Road', 'lat': 1.319410658001751, 'lng': 103.91369383745864, 'labeledLatLngs': [{'label': 'display', 'lat': 1.319410658001751, 'lng': 103.91369383745864}], 'distance': 69, 'postalCode': '419901', 'cc': 'SG', 'city': 'Singapore', 'country': 'Singapore', 'formattedAddress': ['494 Changi Road (Changi Road)', '419901', 'Singapore']}, 'categories': [{'id': '4bf58dd8d48988d145941735', 'name': 'Chinese Restaurant', 'pluralName': 'Chinese Restaurants', 'shortName': 'Chinese', 'icon': {'prefix': 'https://ss3.4sqi.net/img/categories_v2/food/asian_', 'suffix': '.png'}, 'primary': True}], 'photos': {'count': 0, 'groups': []}}, 'referralId': 'e-0-4fdc82fae4b0dd796b5b0965-4'}, {'reasons': {'count': 0, 'items': [{'summary': 'This spot is popular', 'type': 'general', 'reasonName': 'globalInteractionReason'}]}, 'venue': {'id': '554f3d6b498e0d9322a9d44a', 'name': 'The Oasis Taiwan Porridge  (Branch)', 'location': {'address': '502 Changi Road', 'lat': 1.3196871300456714, 'lng': 103.91413565406407, 'labeledLatLngs': [{'label': 'display', 'lat': 1.3196871300456714, 'lng': 103.91413565406407}], 'distance': 61, 'cc': 'SG', 'city': 'Singapore', 'country': 'Singapore', 'formattedAddress': ['502 Changi Road', 'Singapore']}, 'categories': [{'id': '4bf58dd8d48988d145941735', 'name': 'Chinese Restaurant', 'pluralName': 'Chinese Restaurants', 'shortName': 'Chinese', 'icon': {'prefix': 'https://ss3.4sqi.net/img/categories_v2/food/asian_', 'suffix': '.png'}, 'primary': True}], 'photos': {'count': 0, 'groups': []}}, 'referralId': 'e-0-554f3d6b498e0d9322a9d44a-5'}, {'reasons': {'count': 0, 'items': [{'summary': 'This spot is popular', 'type': 'general', 'reasonName': 'globalInteractionReason'}]}, 'venue': {'id': '4c0f8a3b336220a134e1cd77', 'name': 'Hock Choon Co. Eating House', 'location': {'address': 'Lor Mydin', 'lat': 1.318911517463982, 'lng': 103.91174697848976, 'labeledLatLngs': [{'label': 'display', 'lat': 1.318911517463982, 'lng': 103.91174697848976}], 'distance': 281, 'cc': 'SG', 'city': 'Singapore', 'country': 'Singapore', 'formattedAddress': ['Lor Mydin', 'Singapore']},